Site Id,School Name,Site Name,Protocol,Data Count,Latitude,Longitude,Elevation
4976,1st Gymnasium of Preveza,KYANI AKTI:LCS-01,{dv_land_coversdv_vegatation_covers},3.0,38.95,20.75,15.0
4975,1st Gymnasium of Preveza,School Location:BIO-01,{dv_land_coversdv_vegatation_covers},3.0,38.9533,20.752,15.0
4922,2nd Gymnasium of Agia Paraskevi,School Location:BIO-01,{dv_land_coversdv_vegatation_covers},2.0,38.003,23.8245,210.0
103579,Abu baker alsedik basic school,A l Dhohory farmer,{dv_land_coversdv_vegatation_covers},4.0,26.11155,56.15201,8.0
186983,Abu baker alsedik basic school,al filitty farmer3,{dv_land_coversdv_vegatation_covers},2.0,26.11446,56.1457,3.0
104816,Abu baker alsedik basic school,Alflity farmer,{dv_land_coversdv_vegatation_covers},4.0,26.11304,56.14493,3.0
186256,Abu baker alsedik basic school,Alflity farmer2,{dv_land_coversdv_vegatation_covers},2.0,26.11204,56.13493,4.0
105033,Abu baker alsedik basic school,Al Hager farmer,{dv_land_coversdv_vegatation_covers},3.0,26.1136,56.14321,3.0
106728,Abu baker alsedik basic school,AL KHALDIA 2,{dv_land_coversdv_vegatation_covers},3.0,26.22867,56.21586,163.0
104928,Abu baker alsedik basic school,AL khalidia,{dv_land_coversdv_vegatation_covers},3.0,26.23367,56.22392,164.0
105424,Abu baker alsedik basic school,al maziood farmer,{dv_land_coversdv_vegatation_covers},3.0,23.11219,56.1427,5.0
107060,Abu baker alsedik basic school,AL saiba 1,{dv_land_coversdv_vegatation_covers},3.0,26.11292,56.14314,0.0
107064,Abu baker alsedik basic school,Al saiba 2,{dv_land_coversdv_vegatation_covers},3.0,26.11267,56.14293,6.0
125906,Abu baker alsedik basic school,AL TAIB 2 FARMER,{dv_land_coversdv_vegatation_covers},3.0,26.11407,56.15145,3.0
186982,Abu baker alsedik basic school,bany  farmer,{dv_land_coversdv_vegatation_covers},2.0,26.11445,56.1459,3.0
104568,Abu baker alsedik basic school,Dabaa farmer,{dv_land_coversdv_vegatation_covers},4.0,25.52787,56.1552,2.0
106665,Abu baker alsedik basic school,KHASAB- GARDEN,{dv_land_coversdv_vegatation_covers},5.0,26.10463,56.14515,6.0
142772,Abu baker alsedik basic school,Sal - alla,{dv_land_coversdv_vegatation_covers},2.0,26.2227,56.21431,162.0
142773,Abu baker alsedik basic school,Sal - alla 2,{dv_land_coversdv_vegatation_covers},2.0,26.2236,56.21414,163.0
143612,Abu baker alsedik basic school,SEKETT ALSOQE2,{dv_land_coversdv_vegatation_covers},3.0,26.11381,56.14553,7.0
143611,Abu baker alsedik basic school,SEKKET AL SOOQ1,{dv_land_coversdv_vegatation_covers},2.0,26.11354,56.14561,8.0
142777,Abu baker alsedik basic school,Siba3,{dv_land_coversdv_vegatation_covers},2.0,26.11188,56.14323,5.0
142778,Abu baker alsedik basic school,SIBA 4,{dv_land_coversdv_vegatation_covers},2.0,26.14588,56.18523,5.0
111847,Abu baker alsedik basic school,Sikket elsoq farmer,{dv_land_coversdv_vegatation_covers},3.0,26.11258,56.14454,3.0
142776,Abu baker alsedik basic school,Sl alla 3,{dv_land_coversdv_vegatation_covers},3.0,26.33074,56.19523,162.0
118116,Abu baker alsedik basic school,SOBEET FARMER,{dv_land_coversdv_vegatation_covers},3.0,26.11179,56.14405,15.0
125819,Abu baker alsedik basic school,TAIB  FARMER,{dv_land_coversdv_vegatation_covers},3.0,26.11409,56.15152,3.0
24583,Academy of the Sacred Heart,Field area 3:LCS-01,{dv_land_coversdv_vegatation_covers},2.0,42.3444,-83.1344,303.7
19663,Acalanes High School,School Location:BIO-01,{dv_land_coversdv_vegatation_covers},2.0,37.9032,-122.0973,295.0
6810,A.E.S.Dr.DDM Sr. Sec. School,IN MAIN GROUND BEHIND THE STAGE:LCS-01,{dv_land_coversdv_vegatation_covers},2.0,28.6279,77.23913,213.0
26029,A.E. Stevenson School,STEVENSON:LCS-01,{dv_land_coversdv_vegatation_covers},2.0,40.8817,-74.3175,4.2
185243,AGA KHAN SCHOOL,42QWL709274,{dv_land_coversdv_vegatation_covers},2.0,22.85288,69.69107,16.9
185241,AGA KHAN SCHOOL,42QWL709275,{dv_land_coversdv_vegatation_covers},2.0,22.85379,69.69108,17.0
30416,Aikin Elementary New Caney,Dogwood Lane Right Next To Our School (NE):BIO-01,{dv_land_coversdv_vegatation_covers},2.0,30.1778,-95.1535,34.0
33178,Ain Jaloot basic school,land cover,{dv_land_coversdv_vegatation_covers},2.0,23.58339,57.05474,15.0
156997,A.I. Prince CTHS,MDC West Hartford,{dv_land_coversdv_vegatation_covers},2.0,41.74972,-72.7911,110.6
48257,Alemam ahmed bin said basic school,alqurm garden,{dv_land_coversdv_vegatation_covers},2.0,23.61583,58.48753,7.0
19925,Alexander Dawson School,Biology - Boulder Creek:BIO-02,{dv_land_coversdv_vegatation_covers},2.0,40.058,-105.1053,1504.0
19934,Alexander Dawson School,BOULDER CREEK AT RT.287:LCS-01,{dv_land_coversdv_vegatation_covers},2.0,40.058,-105.1053,1504.2
48252,Alfadal alhawari pasic school,ALQUARM BARK,{dv_land_coversdv_vegatation_covers},2.0,23.3657,58.2914,7.0
7089,Alftamyrarskoli,School Location:BIO-01,{dv_land_coversdv_vegatation_covers},3.0,64.1338,-21.8922,35.0
140006,Alhawary Mohammad Al-Azdy,gharbi farm,{dv_land_coversdv_vegatation_covers},6.0,22.82529,58.15918,540.0
127486,Alkamel Pasic School,AlKamil and AlWafi Garden,{dv_land_coversdv_vegatation_covers},8.0,22.19695,59.21802,170.0
139962,Alkamel Pasic School,Farm1,{dv_land_coversdv_vegatation_covers},5.0,22.15,59.1009,180.0
26083,Allentown High School,School Location:BIO-01,{dv_land_coversdv_vegatation_covers},2.0,40.1743,-74.5876,32.0
101402,Al-Matan Intermediate and Secondary Girls School at Sabya,Al_matan Intermediate and Secondary  school,{dv_land_coversdv_vegatation_covers},144.0,17.42996,42.54965,99.5
32313,Al Muabila Alshamaliah basic school,khoth park:LCS-01,{dv_land_coversdv_vegatation_covers},2.0,23.65,58.2,57.8
105632,Alsheefa bint awf basic school,Al khafiji,{dv_land_coversdv_vegatation_covers},2.0,23.0,58.0,5.0
102153,Althabti basic school,althabti garden,{dv_land_coversdv_vegatation_covers},2.0,22.43,58.32,473.0
105789,Althabti basic school,GARDEN,{dv_land_coversdv_vegatation_covers},3.0,22.43,58.32,415.0
8379,American Community School,Baabdat:LCS-26,{dv_land_coversdv_vegatation_covers},2.0,33.895,35.6648,755.9
8367,American Community School,Isolated Woodland near Urban Highway:LCS-04,{dv_land_coversdv_vegatation_covers},2.0,33.954,35.6654,539.9
8381,American Community School,Mansourieh ACS group:LCS-28,{dv_land_coversdv_vegatation_covers},2.0,33.895,35.6648,755.9
8380,American Community School,Roumy:LCS-27,{dv_land_coversdv_vegatation_covers},2.0,33.8882,35.5601,368.4
7185,Amman Baccalaureate School,DADA:LCS-03,{dv_land_coversdv_vegatation_covers},3.0,31.0,32.8,1096.0
7184,Amman Baccalaureate School,WADI SAQRA:LCS-01,{dv_land_coversdv_vegatation_covers},3.0,31.1111,32.1111,1093.3
4550,Ammansaari Ylaaste,School Location:BIO-01,{dv_land_coversdv_vegatation_covers},2.0,65.8767,28.9375,210.0
21450,Anita Elementary School,School Location:BIO-01,{dv_land_coversdv_vegatation_covers},2.0,41.4222,-94.78,484.0
4673,Apian Ylaaste,School Location:BIO-01,{dv_land_coversdv_vegatation_covers},4.0,61.2694,24.0194,88.0
21233,Appling County Middle School,School Location:BIO-01,{dv_land_coversdv_vegatation_covers},2.0,31.7781,-82.3486,49.0
155323,Argentina Citizen Science,21HUB292850,{dv_land_coversdv_vegatation_covers},6.0,-34.46243,-58.85955,23.3
150051,Argentina Citizen Science,21HUB399943,{dv_land_coversdv_vegatation_covers},7.0,-34.38032,-58.74136,11.8
46275,Arkansas GLOBE v-School,Inn at Carnall Hall - U Arkansas - Biometry Site,{dv_land_coversdv_vegatation_covers},10.0,36.06867,-94.16992,408.0
26837,Arlington High School,RLINGTON fOREST:LCS-08,{dv_land_coversdv_vegatation_covers},2.0,41.6833,-73.8,256.0
147758,Asia and Pacific GLOBE v-School,GlobeStudy site,{dv_land_coversdv_vegatation_covers},2.0,28.51742,77.39046,197.2
48258,Asma Bint Alnuman basic school,alqurm,{dv_land_coversdv_vegatation_covers},2.0,23.36,58.29,11.0
28860,Athens Area High School,Round Top:BIO-07,{dv_land_coversdv_vegatation_covers},2.0,41.9503,-76.523,421.0
28861,Athens Area High School,Round Top:BIO-08,{dv_land_coversdv_vegatation_covers},2.0,41.9503,-76.523,421.0
28863,Athens Area High School,round top :BIO-10,{dv_land_coversdv_vegatation_covers},2.0,41.9503,-76.523,421.0
28864,Athens Area High School,Round Top:BIO-11,{dv_land_coversdv_vegatation_covers},2.0,41.9503,-76.523,421.0
28862,Athens Area High School,Round Top Park:BIO-09,{dv_land_coversdv_vegatation_covers},2.0,41.9503,-76.523,421.0
28855,Athens Area High School,School Location:BIO-01,{dv_land_coversdv_vegatation_covers},2.0,41.9311,-76.4625,369.0
7481,Attached Junior High School Nara Women's University,School Location:BIO-01,{dv_land_coversdv_vegatation_covers},3.0,34.7033,135.84,100.0
23772,Auburn Land Lab,Rabbit Hill:BIO-02,{dv_land_coversdv_vegatation_covers},5.0,44.1765,-70.28,95.0
23773,Auburn Land Lab,Rabbit Hill:LCS-01,{dv_land_coversdv_vegatation_covers},3.0,44.1075,-70.2315,62.0
29638,Audubon At Francis Beidler Forest,Beidler Land Cover Investigation Site 1:LCS-01,{dv_land_coversdv_vegatation_covers},3.0,33.22044,-80.35228,48.4
8784,A. Upitis Skriveri Secondary School,park:LCS-01,{dv_land_coversdv_vegatation_covers},2.0,56.6453,25.12,43.7
157564,Australia Citizen Science,56JNQ104616,{dv_land_coversdv_vegatation_covers},2.0,-27.46911,153.10526,5.8
21340,Avondale High School,GARDENING SITE:LCS-01,{dv_land_coversdv_vegatation_covers},5.0,33.7595,-84.2687,281.8
21312,Avondale High School,School Location:BIO-01,{dv_land_coversdv_vegatation_covers},3.0,33.7595,-84.2686,251.0
29697,Axtell Park Middle School,Axtell Bio Site 1:BIO-02,{dv_land_coversdv_vegatation_covers},2.0,43.5425,-96.7505,1530.0
29696,Axtell Park Middle School,School Location:BIO-01,{dv_land_coversdv_vegatation_covers},2.0,43.55,-96.7468,419.0
156427,BANGIL ELEMENTARY SCHOOL,52SCG675657,{dv_land_coversdv_vegatation_covers},53.0,37.62888,127.49842,215.2
18133,Bankhead Middle,biometry practice:LCS-01,{dv_land_coversdv_vegatation_covers},6.0,33.758,-87.19,139.0
167192,Bannaengmud school,48PUA309984,{dv_land_coversdv_vegatation_covers},6.0,14.45296,103.43118,211.4
216122,BanNongSanomDontiw School,48PUC075205,{dv_land_coversdv_vegatation_covers},27.0,15.5548,103.20497,144.1
156959,Banpakhuaiwangnong,48PVB881851,{dv_land_coversdv_vegatation_covers},3.0,15.24204,104.88918,125.9
156955,Banpakhuaiwangnong,48PVB881852,{dv_land_coversdv_vegatation_covers},2.0,15.24294,104.88918,125.8
156952,Banpakhuaiwangnong,48PVB882851,{dv_land_coversdv_vegatation_covers},4.0,15.24204,104.89012,125.9
156956,Banpakhuaiwangnong,48PVB882852,{dv_land_coversdv_vegatation_covers},2.0,15.24295,104.89012,125.3
16498,Bartlett High School (USAKTAQR),Bartlett Woods:LCS-01,{dv_land_coversdv_vegatation_covers},2.0,61.1389,-149.4343,39.8
6985,Basava International School,sector 23 park:LCS-01,{dv_land_coversdv_vegatation_covers},2.0,28.5655,77.05568,205.7
17153,BB Comer Memorial High School,Thompson Park:LCS-01,{dv_land_coversdv_vegatation_covers},2.0,33.22582,-86.82954,169.3
24287,Beaver Island Community School,School Location:BIO-01,{dv_land_coversdv_vegatation_covers},2.0,45.7459,-85.5245,198.0
22610,Belleville Township High School East,School Location:BIO-01,{dv_land_coversdv_vegatation_covers},3.0,38.5163,-89.9483,139.0
29883,Belton Junior High School,School Location:BIO-01,{dv_land_coversdv_vegatation_covers},3.0,31.0586,-97.4598,143.0
46954,Benjamin Franklin Science Corner,21JVN374034,{dv_land_coversdv_vegatation_covers},7.0,-25.28454,-57.62179,93.7
111723,Benjamin Franklin Science Corner,Benjamin Franklin Science Corner edificio,{dv_land_coversdv_vegatation_covers},3.0,-25.28394,-57.62169,108.9
125525,Bennington Grade School,14SPJ213210,{dv_land_coversdv_vegatation_covers},3.0,39.02964,-97.59862,372.6
30652,Berkeley Middle School (USVAOOYA),School Location:BIO-01,{dv_land_coversdv_vegatation_covers},2.0,37.3178,-76.7634,9.0
163370,BerksNature - The Nature Place GLOBE v-School,18TVK212627,{dv_land_coversdv_vegatation_covers},2.0,40.3111,-75.92737,69.3
26267,Berlin Central Middle/High School,School Location:BIO-01,{dv_land_coversdv_vegatation_covers},2.0,42.6311,-73.3575,344.0
2514,Bertha-von Suttner Schule,Bertha-von-Suttner Schule:BIO-02,{dv_land_coversdv_vegatation_covers},2.0,48.9413,8.3983,129.0
2295,Berufskolleg Institut Dr. Flad,School Location:BIO-01,{dv_land_coversdv_vegatation_covers},3.0,48.774,9.1543,271.0
2296,Berufskolleg Institut Dr. Flad,Site for Biology Elisabethenanlage:LCS-01,{dv_land_coversdv_vegatation_covers},2.0,48.7715,9.1552,267.0
19351,Birch Lane Elementary School,Quad subsite:LCS-01,{dv_land_coversdv_vegatation_covers},2.0,38.935,-121.0121,13.0
19350,Birch Lane Elementary School,School Location:BIO-01,{dv_land_coversdv_vegatation_covers},5.0,38.561,-121.7273,16.0
19352,Birch Lane Elementary School,subsite f:LCS-02,{dv_land_coversdv_vegatation_covers},2.0,38.0093,-121.0121,-32.0
13138,Bjorksatraskolan 6-9,Bovik Forest:BIO-02,{dv_land_coversdv_vegatation_covers},2.0,60.6052,16.7477,39.0
31426,Blaine Elementary School,School Location:BIO-01,{dv_land_coversdv_vegatation_covers},2.0,46.7208,-92.1039,213.0
24850,Blanchette Middle School,Blanchette Playing Field:LCS-01,{dv_land_coversdv_vegatation_covers},3.0,42.1749,-83.201,645.3
31277,Blue Heron Middle School,School Location:BIO-01,{dv_land_coversdv_vegatation_covers},2.0,48.1172,-122.7592,32.0
18024,Boaz Middle School,practice at AMSTI UM training:LCS-03,{dv_land_coversdv_vegatation_covers},2.0,33.22581,-86.82957,180.2
18022,Boaz Middle School,Practice at AMSTI UNA training:LCS-01,{dv_land_coversdv_vegatation_covers},2.0,34.78395,-87.65599,259.0
17865,Bob Jones High School,Nature Trail:BIO-02,{dv_land_coversdv_vegatation_covers},2.0,34.7218,-86.7473,301.0
17864,Bob Jones High School,School Location:BIO-01,{dv_land_coversdv_vegatation_covers},4.0,34.7197,-86.7463,194.0
21204,Bob Mathis Elementary School,outdoor classroom:BIO-03,{dv_land_coversdv_vegatation_covers},2.0,33.6898,-84.2402,219.0
6455,Bocskai Istvan Gimnazium Szakkepz? Iskola es Kollegium,01...LC01...87 LandCover87:BIO-05,{dv_land_coversdv_vegatation_covers},13.0,47.1455,21.7311,50.5
6454,Bocskai Istvan Gimnazium Szakkepz? Iskola es Kollegium,LC01...87 BIOL. STU.SI 87:BIO-03,{dv_land_coversdv_vegatation_covers},15.0,47.1455,21.7311,50.5
6453,Bocskai Istvan Gimnazium Szakkepz? Iskola es Kollegium,LC01...87_LandCover87:BIO-01,{dv_land_coversdv_vegatation_covers},22.0,47.1455,21.7311,77.8
107184,Boleslaw Prus Primary School No. 1 in Gora,33UXT063246,{dv_land_coversdv_vegatation_covers},3.0,51.66232,16.53693,88.0
105005,Boleslaw Prus Primary School No. 1 in Gora,33UXT064246,{dv_land_coversdv_vegatation_covers},32.0,51.6623,16.53837,88.2
215315,Boston University School of Education GLOBE v-School,19TCG256904,{dv_land_coversdv_vegatation_covers},6.0,42.34632,-71.11731,14.0
200971,Bowling Green State University (USOHP793),17TKG811057,{dv_land_coversdv_vegatation_covers},2.0,41.57302,-83.62557,188.9
51241,Bowling Green State University (USOHP793),17TKG811058,{dv_land_coversdv_vegatation_covers},6.0,41.57392,-83.6256,192.1
512,Boyne Island Environmental Education Centre,LILLEY HILLS:LCS-01,{dv_land_coversdv_vegatation_covers},2.0,-23.9463,151.4753,6.0
511,Boyne Island Environmental Education Centre,School Location:BIO-01,{dv_land_coversdv_vegatation_covers},4.0,-23.9167,151.35,6.0
208845,Brazil Citizen Science,23KLQ162298,{dv_land_coversdv_vegatation_covers},2.0,-23.23074,-46.79636,837.2
210517,Brazil Secondary School,20PPS621800,{dv_land_coversdv_vegatation_covers},2.0,10.67109,-61.51794,23.9
171463,Brazil Secondary School,20PPS628792,{dv_land_coversdv_vegatation_covers},2.0,10.66382,-61.51157,20.2
187732,Brazil Secondary School,20PPS675525,{dv_land_coversdv_vegatation_covers},2.0,10.42222,-61.46981,13.5
171643,Brazil Secondary School,20PPS736638,{dv_land_coversdv_vegatation_covers},2.0,10.52411,-61.41358,16.0
124034,Brazil Secondary School,20PPS775620,{dv_land_coversdv_vegatation_covers},15.0,10.50766,-61.37803,26.6
124462,Brazil Secondary School,20PPS892678,{dv_land_coversdv_vegatation_covers},8.0,10.55953,-61.27086,30.9
151401,Brazil Secondary School,20PPS892679,{dv_land_coversdv_vegatation_covers},7.0,10.56043,-61.27085,31.9
13753,Brazil Secondary School,Brazil High ~ 2010 Climate and Land Cover Event:LCS-01,{dv_land_coversdv_vegatation_covers},7.0,10.56041,-61.27062,30.0
409,Broken Hill High School,School Location:BIO-01,{dv_land_coversdv_vegatation_covers},2.0,-31.9667,141.45,307.0
165429,Brooklyn College/ Science Education Program,22TCT346829,{dv_land_coversdv_vegatation_covers},2.0,47.67832,-53.20368,127.0
22484,Bryan Junior High School,School Location:BIO-01,{dv_land_coversdv_vegatation_covers},2.0,41.8678,-87.9329,191.0
19050,Buena High School,BIOMETRY:BIO-02,{dv_land_coversdv_vegatation_covers},2.0,31.5687,-110.2398,1305.0
19052,Buena High School,Buena Land Cover:LCS-01,{dv_land_coversdv_vegatation_covers},2.0,31.5687,-110.2398,1133.0
19049,Buena High School,School Location:BIO-01,{dv_land_coversdv_vegatation_covers},2.0,31.5783,-110.2107,1298.0
197975,Bulgaria Citizen Science,35TNH821865,{dv_land_coversdv_vegatation_covers},2.0,43.22683,28.01098,18.3
694,Bullsbrook District High School,School Location:BIO-01,{dv_land_coversdv_vegatation_covers},2.0,-31.6667,115.95,36.0
209,Bundeshandelsakademie und Bundeshandelsschule Bregenz,School Location:BIO-01,{dv_land_coversdv_vegatation_covers},3.0,47.4917,9.7233,403.0
29917,Burbank Middle School,Eagle site 2:LCS-01,{dv_land_coversdv_vegatation_covers},2.0,29.838,-95.3738,7.0
29916,Burbank Middle School,School Location:BIO-01,{dv_land_coversdv_vegatation_covers},4.0,29.8377,-95.3713,7.0
23476,Burleigh Manor Middle School,School Location:BIO-01,{dv_land_coversdv_vegatation_covers},3.0,39.2672,-76.7986,38.0
26108,Burlington County Institute Of Technology,School Location:BIO-01,{dv_land_coversdv_vegatation_covers},2.0,39.9008,-74.8239,17.0
22142,Burlington High School,School Location:BIO-01,{dv_land_coversdv_vegatation_covers},4.0,40.8068,-91.1388,148.0
31141,Burr And Burton Academy,Equinox Preservation Trust A1:LCS-07,{dv_land_coversdv_vegatation_covers},2.0,43.0017,-73.0017,1200.0
31140,Burr And Burton Academy,Equinox Preservation Trust B2:LCS-06,{dv_land_coversdv_vegatation_covers},2.0,43.0017,-73.0017,1250.0
31139,Burr And Burton Academy,Equinox Preservation Trust C3:LCS-05,{dv_land_coversdv_vegatation_covers},2.0,43.0167,-73.0167,1250.0
31138,Burr And Burton Academy,Equinox Preservation Trust D4:LCS-04,{dv_land_coversdv_vegatation_covers},2.0,43.0167,-73.0167,1000.0
31135,Burr And Burton Academy,Pew forest V1A  Manchester VT:LCS-01,{dv_land_coversdv_vegatation_covers},2.0,43.0033,-73.0017,1359.0
31136,Burr And Burton Academy,Pew forest V1B  Manchester VT:LCS-02,{dv_land_coversdv_vegatation_covers},2.0,43.0033,-73.0017,1404.0
31137,Burr And Burton Academy,Pew forest V1C  Manchester VT:LCS-03,{dv_land_coversdv_vegatation_covers},2.0,43.0033,-73.0017,1359.0
31143,Burr And Burton Academy,red gate trail B3 right:LCS-09,{dv_land_coversdv_vegatation_covers},6.0,43.1616,-73.072,699.0
28579,Butte Creek Elementary School,School Location:BIO-01,{dv_land_coversdv_vegatation_covers},2.0,45.0675,-122.7866,326.0
28551,Byng Public Schools,Site 3:BIO-01,{dv_land_coversdv_vegatation_covers},3.0,34.7743,-96.6782,252.0
1900,CAG Ceske Budejovice,Maj:LCS-01,{dv_land_coversdv_vegatation_covers},4.0,48.983,14.4299,401.0
44670,CAG Ceske Budejovice,PIXEL DOBRÁ VODA,{dv_land_coversdv_vegatation_covers},2.0,49.0,14.0,480.0
17551,Calera Middle/High School,Oak Mountain:LCS-01,{dv_land_coversdv_vegatation_covers},2.0,33.21877,-86.43516,549.1
29054,California University Of Pennsylvania,Placewithbugsandpoisonivy:LCS-08,{dv_land_coversdv_vegatation_covers},2.0,40.0659,-79.8863,248.0
29055,California University Of Pennsylvania,s:LCS-09,{dv_land_coversdv_vegatation_covers},2.0,40.0659,-79.8863,248.0
29049,California University Of Pennsylvania,sss:BIO-01,{dv_land_coversdv_vegatation_covers},2.0,40.0659,-79.8863,248.0
22967,Campbellsburg Elementary School,School Location:BIO-01,{dv_land_coversdv_vegatation_covers},2.0,38.5237,-85.2028,217.0
156208,Canada Citizen Science,17TNL491622,{dv_land_coversdv_vegatation_covers},2.0,45.71161,-80.36917,203.0
44242,Canyon Weather,11SLT956789,{dv_land_coversdv_vegatation_covers},2.0,34.14579,-118.13242,248.2
135251,Canyon Weather,11SLT956790,{dv_land_coversdv_vegatation_covers},2.0,34.14669,-118.13243,250.7
36953,Canyon Weather,11SMT308761,{dv_land_coversdv_vegatation_covers},8.0,34.12347,-117.75042,438.3
35822,Canyon Weather,11SMT309761,{dv_land_coversdv_vegatation_covers},2.0,34.12347,-117.74934,467.6
35802,Canyon Weather,11SMT309762,{dv_land_coversdv_vegatation_covers},8.0,34.12437,-117.74934,485.3
170479,Cardinal Stefan Wyszyński Complex of Elementary School in Jadachy,34UEA443957,{dv_land_coversdv_vegatation_covers},3.0,50.51159,21.62479,166.9
170483,Cardinal Stefan Wyszyński Complex of Elementary School in Jadachy,34UEA444955,{dv_land_coversdv_vegatation_covers},2.0,50.50978,21.62618,171.0
170481,Cardinal Stefan Wyszyński Complex of Elementary School in Jadachy,34UEA444956,{dv_land_coversdv_vegatation_covers},2.0,50.51068,21.62619,167.6
145692,Cardinal Stefan Wyszyński Complex of Elementary School in Jadachy,34UEA451955,{dv_land_coversdv_vegatation_covers},2.0,50.50973,21.63605,163.0
173543,Cardinal Stefan Wyszyński Complex of Elementary School in Jadachy,34UEA457939,{dv_land_coversdv_vegatation_covers},3.0,50.49529,21.64432,146.1
172334,Cardinal Stefan Wyszyński Complex of Elementary School in Jadachy,34UEA458935,{dv_land_coversdv_vegatation_covers},3.0,50.49169,21.64568,145.2
170965,Cardinal Stefan Wyszyński Complex of Elementary School in Jadachy,34UEA458940,{dv_land_coversdv_vegatation_covers},2.0,50.49618,21.64574,147.0
171551,Cardinal Stefan Wyszyński Complex of Elementary School in Jadachy,34UEA459935,{dv_land_coversdv_vegatation_covers},3.0,50.49168,21.64709,146.1
172333,Cardinal Stefan Wyszyński Complex of Elementary School in Jadachy,34UEA459936,{dv_land_coversdv_vegatation_covers},2.0,50.49258,21.6471,146.1
171552,Cardinal Stefan Wyszyński Complex of Elementary School in Jadachy,34UEA460934,{dv_land_coversdv_vegatation_covers},2.0,50.49077,21.64849,147.0
172989,Cardinal Stefan Wyszyński Complex of Elementary School in Jadachy,34UEA461927,{dv_land_coversdv_vegatation_covers},2.0,50.48447,21.64981,147.0
171180,Cardinal Stefan Wyszyński Complex of Elementary School in Jadachy,34UEA461937,{dv_land_coversdv_vegatation_covers},3.0,50.49346,21.64993,146.6
170963,Cardinal Stefan Wyszyński Complex of Elementary School in Jadachy,34UEA461944,{dv_land_coversdv_vegatation_covers},2.0,50.49976,21.65002,146.4
171178,Cardinal Stefan Wyszyński Complex of Elementary School in Jadachy,34UEA462932,{dv_land_coversdv_vegatation_covers},2.0,50.48896,21.65128,151.4
172332,Cardinal Stefan Wyszyński Complex of Elementary School in Jadachy,34UEA464936,{dv_land_coversdv_vegatation_covers},2.0,50.49254,21.65415,149.1
171181,Cardinal Stefan Wyszyński Complex of Elementary School in Jadachy,34UEA464941,{dv_land_coversdv_vegatation_covers},2.0,50.49703,21.65421,146.1
170969,Cardinal Stefan Wyszyński Complex of Elementary School in Jadachy,34UEA466932,{dv_land_coversdv_vegatation_covers},5.0,50.48893,21.65692,153.7
171177,Cardinal Stefan Wyszyński Complex of Elementary School in Jadachy,34UEA466935,{dv_land_coversdv_vegatation_covers},3.0,50.49162,21.65696,152.0
171176,Cardinal Stefan Wyszyński Complex of Elementary School in Jadachy,34UEA467936,{dv_land_coversdv_vegatation_covers},4.0,50.49251,21.65838,151.6
171175,Cardinal Stefan Wyszyński Complex of Elementary School in Jadachy,34UEA467937,{dv_land_coversdv_vegatation_covers},2.0,50.49341,21.65839,154.4
170967,Cardinal Stefan Wyszyński Complex of Elementary School in Jadachy,34UEA468934,{dv_land_coversdv_vegatation_covers},2.0,50.49071,21.65976,147.0
126615,Cardinal Stefan Wyszyński Complex of Elementary School in Jadachy,34UEA472960,{dv_land_coversdv_vegatation_covers},2.0,50.51406,21.66573,150.4
141052,Cardinal Stefan Wyszyński Complex of Elementary School in Jadachy,34UEA474953,{dv_land_coversdv_vegatation_covers},4.0,50.50775,21.66846,146.2
171514,Cardinal Stefan Wyszyński Complex of Elementary School in Jadachy,34UEA475932,{dv_land_coversdv_vegatation_covers},4.0,50.48885,21.6696,149.6
155453,Cardinal Stefan Wyszyński Complex of Elementary School in Jadachy,34UEA475958,{dv_land_coversdv_vegatation_covers},2.0,50.51223,21.66994,146.4
138481,Cardinal Stefan Wyszyński Complex of Elementary School in Jadachy,34UEA476958,{dv_land_coversdv_vegatation_covers},2.0,50.51223,21.67135,146.3
176430,Cardinal Stefan Wyszyński Complex of Elementary School in Jadachy,34UEA477915,{dv_land_coversdv_vegatation_covers},3.0,50.47355,21.67221,149.2
138480,Cardinal Stefan Wyszyński Complex of Elementary School in Jadachy,34UEA477953,{dv_land_coversdv_vegatation_covers},4.0,50.50772,21.67269,145.2
140780,Cardinal Stefan Wyszyński Complex of Elementary School in Jadachy,34UEA478946,{dv_land_coversdv_vegatation_covers},2.0,50.50142,21.67401,146.0
140782,Cardinal Stefan Wyszyński Complex of Elementary School in Jadachy,34UEA478947,{dv_land_coversdv_vegatation_covers},2.0,50.50232,21.67403,146.9
170373,Cardinal Stefan Wyszyński Complex of Elementary School in Jadachy,34UEA478984,{dv_land_coversdv_vegatation_covers},2.0,50.53559,21.6745,161.2
176102,Cardinal Stefan Wyszyński Complex of Elementary School in Jadachy,34UEA481933,{dv_land_coversdv_vegatation_covers},6.0,50.4897,21.67807,146.0
116181,Cardinal Stefan Wyszyński Complex of Elementary School in Jadachy,34UEA481936,{dv_land_coversdv_vegatation_covers},14.0,50.4924,21.67811,146.9
112422,Cardinal Stefan Wyszyński Complex of Elementary School in Jadachy,34UEA481937,{dv_land_coversdv_vegatation_covers},15.0,50.4933,21.67813,147.3
123227,Cardinal Stefan Wyszyński Complex of Elementary School in Jadachy,34UEA482930,{dv_land_coversdv_vegatation_covers},3.0,50.487,21.67945,147.0
122983,Cardinal Stefan Wyszyński Complex of Elementary School in Jadachy,34UEA482936,{dv_land_coversdv_vegatation_covers},3.0,50.49239,21.67952,146.9
123613,Cardinal Stefan Wyszyński Complex of Elementary School in Jadachy,34UEA483934,{dv_land_coversdv_vegatation_covers},2.0,50.49059,21.68091,148.1
172894,Cardinal Stefan Wyszyński Complex of Elementary School in Jadachy,34UEA483940,{dv_land_coversdv_vegatation_covers},4.0,50.49598,21.68098,148.1
151086,Cardinal Stefan Wyszyński Complex of Elementary School in Jadachy,34UEA484939,{dv_land_coversdv_vegatation_covers},18.0,50.49507,21.68238,149.0
155144,Cardinal Stefan Wyszyński Complex of Elementary School in Jadachy,34UEA484940,{dv_land_coversdv_vegatation_covers},34.0,50.49597,21.68239,148.8
170484,Cardinal Stefan Wyszyński Complex of Elementary School in Jadachy,34UEA485928,{dv_land_coversdv_vegatation_covers},3.0,50.48517,21.68365,156.3
123571,Cardinal Stefan Wyszyński Complex of Elementary School in Jadachy,34UEA485939,{dv_land_coversdv_vegatation_covers},16.0,50.49507,21.68379,148.8
122708,Cardinal Stefan Wyszyński Complex of Elementary School in Jadachy,34UEA486940,{dv_land_coversdv_vegatation_covers},3.0,50.49596,21.68521,149.0
116713,Cardinal Stefan Wyszyński Complex of Elementary School in Jadachy,34UEA486941,{dv_land_coversdv_vegatation_covers},7.0,50.49686,21.68523,147.9
118381,Cardinal Stefan Wyszyński Complex of Elementary School in Jadachy,34UEA487941,{dv_land_coversdv_vegatation_covers},2.0,50.49685,21.68664,149.6
116494,Cardinal Stefan Wyszyński Complex of Elementary School in Jadachy,34UEA488926,{dv_land_coversdv_vegatation_covers},4.0,50.48335,21.68785,158.3
116375,Cardinal Stefan Wyszyński Complex of Elementary School in Jadachy,34UEA488940,{dv_land_coversdv_vegatation_covers},7.0,50.49594,21.68803,148.6
175507,Cardinal Stefan Wyszyński Complex of Elementary School in Jadachy,34UEA489942,{dv_land_coversdv_vegatation_covers},2.0,50.49773,21.68947,148.7
169279,Cardinal Stefan Wyszyński Complex of Elementary School in Jadachy,34UEA491981,{dv_land_coversdv_vegatation_covers},3.0,50.53278,21.6928,146.5
675,Carine Senior High School,Lake Carine - bushland:BIO-02,{dv_land_coversdv_vegatation_covers},2.0,-31.8495,115.7852,2.0
674,Carine Senior High School,School Location:BIO-01,{dv_land_coversdv_vegatation_covers},2.0,-31.8517,115.7722,32.0
22352,Cascade High School,School Location:BIO-01,{dv_land_coversdv_vegatation_covers},2.0,44.4261,-115.9784,1553.0
22537,Casey-Westfield High School,School Location:BIO-01,{dv_land_coversdv_vegatation_covers},5.0,39.3036,-87.971,104.0
32049,Cavite National Science High School,MT Palay - palay:LCS-01,{dv_land_coversdv_vegatation_covers},8.0,15.0,120.5625,23.5
4065,CC Padre Manyanet,Encinar Valdelatas 1:LCS-03,{dv_land_coversdv_vegatation_covers},2.0,40.526,-3.6663,548.0
4066,CC Padre Manyanet,Encinar Valdelatas 2:LCS-05,{dv_land_coversdv_vegatation_covers},2.0,40.5269,-3.6772,598.0
4064,CC Padre Manyanet,Pinar Valdelatas:LCS-01,{dv_land_coversdv_vegatation_covers},3.0,40.5327,-3.6662,548.0
4068,CC Padre Manyanet,Pre-Encinar Valdelatas 1:LCS-07,{dv_land_coversdv_vegatation_covers},2.0,40.5474,-3.678,699.0
9197,CECyTEM Nicolás Romero,monte sur:LCS-02,{dv_land_coversdv_vegatation_covers},2.0,19.3605,-99.1631,2404.1
19906,Cedaredge Middle School,School Location:BIO-01,{dv_land_coversdv_vegatation_covers},2.0,38.9017,-107.9258,1667.0
893,CEG1 Natitingou,School Location:BIO-01,{dv_land_coversdv_vegatation_covers},3.0,10.2947,1.3808,432.0
961,CEG Avrankou,Biology Site 01:BIO-01,{dv_land_coversdv_vegatation_covers},3.0,6.3368,2.3969,50.4
29615,Centerville Elementary School (USSCM2MR),School Location:BIO-01,{dv_land_coversdv_vegatation_covers},3.0,34.5275,-82.7057,153.0
30270,Central Elementary School (USTXOW7M),Dr. Roberts Creek:LCS-01,{dv_land_coversdv_vegatation_covers},2.0,33.29455,-97.28485,256.7
154802,Centro Regional de Educación de Encarnación,21JVN374034,{dv_land_coversdv_vegatation_covers},3.0,-25.28454,-57.62179,93.7
25298,Charles B. Murray Elementary School,School Location:BIO-01,{dv_land_coversdv_vegatation_covers},2.0,45.4557,-112.1925,1559.0
18566,Charleston Elementary School,School Location:BIO-01,{dv_land_coversdv_vegatation_covers},6.0,35.2969,-94.0361,198.0
28973,Chartiers-Houston Jr./Sr. High School,School Location:BIO-01,{dv_land_coversdv_vegatation_covers},2.0,40.2464,-80.2117,360.0
30537,Chatham Hall,Nature Trail Woodland:LCS-01,{dv_land_coversdv_vegatation_covers},2.0,36.497,-79.2335,207.3
26025,Cherry Hill High School East,School Location:BIO-01,{dv_land_coversdv_vegatation_covers},2.0,39.8757,-74.9582,49.0
25986,Chittick Elementary School,School Location:BIO-01,{dv_land_coversdv_vegatation_covers},3.0,40.4262,-74.376,31.0
19293,Christensen Middle School,Dalton/Ames:LCS-01,{dv_land_coversdv_vegatation_covers},2.0,37.73,-121.73,193.0
30613,Churchland High School,Trucker Riparian Forest:BIO-01,{dv_land_coversdv_vegatation_covers},2.0,36.5269,-76.2232,45.0
26466,Churchville Chili High School,lAND COVER SITE:BIO-01,{dv_land_coversdv_vegatation_covers},2.0,43.074,-77.502,147.0
22410,Churchville Middle School,School Location:BIO-01,{dv_land_coversdv_vegatation_covers},2.0,41.9258,-87.94,24.0
19497,City Of Knowledge School,MT.BALDY LAND COVER/BIOLOGY:BIO-01,{dv_land_coversdv_vegatation_covers},2.0,34.3,-117.7,1549.0
31362,Cleveland Heights Elementary School / New Berlin Public Scho,School Location:BIO-01,{dv_land_coversdv_vegatation_covers},2.0,42.9933,-88.1314,231.0
21151,Cobb Middle School,School Location:BIO-01,{dv_land_coversdv_vegatation_covers},2.0,30.4578,-84.27,20.0
17773,Colbert County High School,land cover practice 1:LCS-01,{dv_land_coversdv_vegatation_covers},2.0,34.78395,-87.65599,259.0
17183,Cold Springs High School,SC Creel:LCS-02,{dv_land_coversdv_vegatation_covers},2.0,33.98,-87.03,241.9
9192,Colegio de Estudios Cientificos y TecnologicosCuautitlan Izcall,RANCHO DE FUENTES:BIO-01,{dv_land_coversdv_vegatation_covers},2.0,19.3803,-99.1323,2332.0
9154,Colegio de Estudios Cientificos y Tecnologicos Plantel Ecatepec,Tierra y Libertad:LCS-01,{dv_land_coversdv_vegatation_covers},3.0,19.3547,-99.0319,2240.0
3332,Colegio Experimental Britanico Internacional,School Location:BIO-01,{dv_land_coversdv_vegatation_covers},2.0,0.1167,-78.45,2900.0
75,Colegio La Salle "Jobson"/Canal Familiar,Estacion zoologica experimental:BIO-01,{dv_land_coversdv_vegatation_covers},2.0,-31.5865,-60.7952,10.0
3676,Colegio San Miguel Arcángel,Patio:LCS-01,{dv_land_coversdv_vegatation_covers},2.0,40.41002,-3.73471,568.3
3677,Colegio San Miguel Arcángel,Pinar Casa de Campo:LCS-02,{dv_land_coversdv_vegatation_covers},2.0,40.41047,-3.74649,592.3
157943,College of Earth Ocean Atmospheric Sciences (CEOAS) GLOBE v-School,06VVR037769,{dv_land_coversdv_vegatation_covers},4.0,63.80626,-148.95554,533.7
157939,College of Earth Ocean Atmospheric Sciences (CEOAS) GLOBE v-School,06WVS300784,{dv_land_coversdv_vegatation_covers},2.0,64.72304,-148.46932,232.3
157837,College of Earth Ocean Atmospheric Sciences (CEOAS) GLOBE v-School,06WVS594929,{dv_land_coversdv_vegatation_covers},3.0,64.85797,-147.85644,183.6
158025,College of Earth Ocean Atmospheric Sciences (CEOAS) GLOBE v-School,06WVS596930,{dv_land_coversdv_vegatation_covers},3.0,64.85889,-147.85225,187.6
157975,College of Earth Ocean Atmospheric Sciences (CEOAS) GLOBE v-School,06WVS597930,{dv_land_coversdv_vegatation_covers},5.0,64.8589,-147.85014,187.4
158363,College of Earth Ocean Atmospheric Sciences (CEOAS) GLOBE v-School,06WVS598929,{dv_land_coversdv_vegatation_covers},6.0,64.85801,-147.848,181.8
158365,College of Earth Ocean Atmospheric Sciences (CEOAS) GLOBE v-School,06WVS599929,{dv_land_coversdv_vegatation_covers},6.0,64.85803,-147.84589,183.6
158362,College of Earth Ocean Atmospheric Sciences (CEOAS) GLOBE v-School,06WVS601930,{dv_land_coversdv_vegatation_covers},3.0,64.85895,-147.8417,187.3
158364,College of Earth Ocean Atmospheric Sciences (CEOAS) GLOBE v-School,06WVS602929,{dv_land_coversdv_vegatation_covers},3.0,64.85806,-147.83956,186.4
157942,College of Earth Ocean Atmospheric Sciences (CEOAS) GLOBE v-School,06WVS604929,{dv_land_coversdv_vegatation_covers},2.0,64.85809,-147.83534,185.4
158053,College of Earth Ocean Atmospheric Sciences (CEOAS) GLOBE v-School,06WVS605932,{dv_land_coversdv_vegatation_covers},2.0,64.86079,-147.83332,181.6
158431,College of Earth Ocean Atmospheric Sciences (CEOAS) GLOBE v-School,06WVS608942,{dv_land_coversdv_vegatation_covers},3.0,64.8698,-147.82727,150.4
157841,College of Earth Ocean Atmospheric Sciences (CEOAS) GLOBE v-School,06WVT809137,{dv_land_coversdv_vegatation_covers},2.0,65.04652,-147.40574,725.0
184933,College of Earth Ocean Atmospheric Sciences (CEOAS) GLOBE v-School,10SEG500843,{dv_land_coversdv_vegatation_covers},2.0,37.80472,-122.43201,7.8
184934,College of Earth Ocean Atmospheric Sciences (CEOAS) GLOBE v-School,10SEG501843,{dv_land_coversdv_vegatation_covers},4.0,37.80471,-122.43088,15.3
184935,College of Earth Ocean Atmospheric Sciences (CEOAS) GLOBE v-School,10SEG502845,{dv_land_coversdv_vegatation_covers},2.0,37.80651,-122.42973,21.6
184791,College of Earth Ocean Atmospheric Sciences (CEOAS) GLOBE v-School,10SEG524820,{dv_land_coversdv_vegatation_covers},2.0,37.78385,-122.40492,9.3
184968,College of Earth Ocean Atmospheric Sciences (CEOAS) GLOBE v-School,10SEJ887052,{dv_land_coversdv_vegatation_covers},2.0,38.8912,-121.97723,23.2
184709,College of Earth Ocean Atmospheric Sciences (CEOAS) GLOBE v-School,10TDP740137,{dv_land_coversdv_vegatation_covers},2.0,43.47576,-123.32148,160.7
154162,College of Earth Ocean Atmospheric Sciences (CEOAS) GLOBE v-School,10TDP913875,{dv_land_coversdv_vegatation_covers},2.0,44.14065,-123.10877,112.1
154161,College of Earth Ocean Atmospheric Sciences (CEOAS) GLOBE v-School,10TDP916875,{dv_land_coversdv_vegatation_covers},4.0,44.14065,-123.10502,109.4
154157,College of Earth Ocean Atmospheric Sciences (CEOAS) GLOBE v-School,10TDP917873,{dv_land_coversdv_vegatation_covers},3.0,44.13885,-123.10377,109.8
149785,College of Earth Ocean Atmospheric Sciences (CEOAS) GLOBE v-School,10TDP934779,{dv_land_coversdv_vegatation_covers},4.0,44.05424,-123.0824,123.9
149786,College of Earth Ocean Atmospheric Sciences (CEOAS) GLOBE v-School,10TDP935778,{dv_land_coversdv_vegatation_covers},2.0,44.05334,-123.08115,126.3
149789,College of Earth Ocean Atmospheric Sciences (CEOAS) GLOBE v-School,10TDP935779,{dv_land_coversdv_vegatation_covers},3.0,44.05424,-123.08115,126.3
184693,College of Earth Ocean Atmospheric Sciences (CEOAS) GLOBE v-School,10TDP950981,{dv_land_coversdv_vegatation_covers},2.0,44.23611,-123.06261,105.8
154163,College of Earth Ocean Atmospheric Sciences (CEOAS) GLOBE v-School,10TDP952981,{dv_land_coversdv_vegatation_covers},3.0,44.23612,-123.06011,106.4
154164,College of Earth Ocean Atmospheric Sciences (CEOAS) GLOBE v-School,10TDP952982,{dv_land_coversdv_vegatation_covers},3.0,44.23702,-123.06011,106.4
184699,College of Earth Ocean Atmospheric Sciences (CEOAS) GLOBE v-School,10TDP982554,{dv_land_coversdv_vegatation_covers},2.0,43.85168,-123.0224,179.5
150444,College of Earth Ocean Atmospheric Sciences (CEOAS) GLOBE v-School,10TDQ770338,{dv_land_coversdv_vegatation_covers},2.0,44.55717,-123.2896,71.3
140457,College of Earth Ocean Atmospheric Sciences (CEOAS) GLOBE v-School,10TDQ771347,{dv_land_coversdv_vegatation_covers},4.0,44.56527,-123.28838,74.7
137379,College of Earth Ocean Atmospheric Sciences (CEOAS) GLOBE v-School,10TDQ771348,{dv_land_coversdv_vegatation_covers},4.0,44.56617,-123.28839,75.0
139620,College of Earth Ocean Atmospheric Sciences (CEOAS) GLOBE v-School,10TDQ773345,{dv_land_coversdv_vegatation_covers},7.0,44.56348,-123.28585,72.5
136776,College of Earth Ocean Atmospheric Sciences (CEOAS) GLOBE v-School,10TDQ773346,{dv_land_coversdv_vegatation_covers},21.0,44.56438,-123.28586,75.0
138474,College of Earth Ocean Atmospheric Sciences (CEOAS) GLOBE v-School,10TDQ774347,{dv_land_coversdv_vegatation_covers},5.0,44.56528,-123.2846,73.7
140055,College of Earth Ocean Atmospheric Sciences (CEOAS) GLOBE v-School,10TDQ775347,{dv_land_coversdv_vegatation_covers},4.0,44.56529,-123.28334,74.9
137522,College of Earth Ocean Atmospheric Sciences (CEOAS) GLOBE v-School,10TDQ775348,{dv_land_coversdv_vegatation_covers},5.0,44.56619,-123.28335,76.4
139183,College of Earth Ocean Atmospheric Sciences (CEOAS) GLOBE v-School,10TDQ776350,{dv_land_coversdv_vegatation_covers},8.0,44.56799,-123.2821,79.7
138101,College of Earth Ocean Atmospheric Sciences (CEOAS) GLOBE v-School,10TDQ777349,{dv_land_coversdv_vegatation_covers},4.0,44.56709,-123.28083,79.5
136782,College of Earth Ocean Atmospheric Sciences (CEOAS) GLOBE v-School,10TDQ778347,{dv_land_coversdv_vegatation_covers},10.0,44.5653,-123.27957,77.7
139116,College of Earth Ocean Atmospheric Sciences (CEOAS) GLOBE v-School,10TDQ778350,{dv_land_coversdv_vegatation_covers},5.0,44.568,-123.27958,79.6
136783,College of Earth Ocean Atmospheric Sciences (CEOAS) GLOBE v-School,10TDQ779347,{dv_land_coversdv_vegatation_covers},7.0,44.5653,-123.27831,77.5
190590,College of Earth Ocean Atmospheric Sciences (CEOAS) GLOBE v-School,10TDQ780341,{dv_land_coversdv_vegatation_covers},2.0,44.5599,-123.27702,71.1
153523,College of Earth Ocean Atmospheric Sciences (CEOAS) GLOBE v-School,10TDQ781348,{dv_land_coversdv_vegatation_covers},2.0,44.5662,-123.27579,77.4
153522,College of Earth Ocean Atmospheric Sciences (CEOAS) GLOBE v-School,10TDQ782347,{dv_land_coversdv_vegatation_covers},6.0,44.56531,-123.27453,71.5
155266,College of Earth Ocean Atmospheric Sciences (CEOAS) GLOBE v-School,10TDQ783347,{dv_land_coversdv_vegatation_covers},2.0,44.56531,-123.27327,70.7
156749,College of Earth Ocean Atmospheric Sciences (CEOAS) GLOBE v-School,10TDQ784348,{dv_land_coversdv_vegatation_covers},2.0,44.56621,-123.27201,70.4
191526,College of Earth Ocean Atmospheric Sciences (CEOAS) GLOBE v-School,10TDQ955540,{dv_land_coversdv_vegatation_covers},3.0,44.73937,-123.05684,58.9
150746,College of Earth Ocean Atmospheric Sciences (CEOAS) GLOBE v-School,10TDQ955541,{dv_land_coversdv_vegatation_covers},4.0,44.74027,-123.05684,59.8
150423,College of Earth Ocean Atmospheric Sciences (CEOAS) GLOBE v-School,10TDQ956540,{dv_land_coversdv_vegatation_covers},13.0,44.73937,-123.05558,61.3
150748,College of Earth Ocean Atmospheric Sciences (CEOAS) GLOBE v-School,10TDQ956541,{dv_land_coversdv_vegatation_covers},32.0,44.74027,-123.05558,60.8
152541,College of Earth Ocean Atmospheric Sciences (CEOAS) GLOBE v-School,10TDQ957539,{dv_land_coversdv_vegatation_covers},2.0,44.73847,-123.05431,61.6
190902,College of Earth Ocean Atmospheric Sciences (CEOAS) GLOBE v-School,10TDQ957543,{dv_land_coversdv_vegatation_covers},3.0,44.74207,-123.05432,60.1
148052,College of Earth Ocean Atmospheric Sciences (CEOAS) GLOBE v-School,10TDQ961539,{dv_land_coversdv_vegatation_covers},8.0,44.73847,-123.04926,57.6
168276,College of Earth Ocean Atmospheric Sciences (CEOAS) GLOBE v-School,10TDR294961,{dv_land_coversdv_vegatation_covers},2.0,46.01483,-123.91201,5.6
168279,College of Earth Ocean Atmospheric Sciences (CEOAS) GLOBE v-School,10TDR464902,{dv_land_coversdv_vegatation_covers},4.0,45.96328,-123.69176,507.7
153369,College of Earth Ocean Atmospheric Sciences (CEOAS) GLOBE v-School,10TDS875154,{dv_land_coversdv_vegatation_covers},2.0,46.19206,-123.16199,1.6
185075,College of Earth Ocean Atmospheric Sciences (CEOAS) GLOBE v-School,10TEL563753,{dv_land_coversdv_vegatation_covers},3.0,41.32721,-122.32724,1082.0
185052,College of Earth Ocean Atmospheric Sciences (CEOAS) GLOBE v-School,10TEL574766,{dv_land_coversdv_vegatation_covers},3.0,41.33884,-122.31397,1211.1
185074,College of Earth Ocean Atmospheric Sciences (CEOAS) GLOBE v-School,10TEL607706,{dv_land_coversdv_vegatation_covers},2.0,41.28456,-122.27513,1128.0
185049,College of Earth Ocean Atmospheric Sciences (CEOAS) GLOBE v-School,10TEL658732,{dv_land_coversdv_vegatation_covers},3.0,41.30758,-122.21395,1596.8
185053,College of Earth Ocean Atmospheric Sciences (CEOAS) GLOBE v-School,10TEM693104,{dv_land_coversdv_vegatation_covers},2.0,41.64233,-122.16787,1541.0
160323,College of Earth Ocean Atmospheric Sciences (CEOAS) GLOBE v-School,10TEQ780899,{dv_land_coversdv_vegatation_covers},2.0,45.05826,-122.00934,958.2
172718,College of Earth Ocean Atmospheric Sciences (CEOAS) GLOBE v-School,10TEQ786185,{dv_land_coversdv_vegatation_covers},2.0,44.41553,-122.01272,1057.5
167004,College of Earth Ocean Atmospheric Sciences (CEOAS) GLOBE v-School,10TEQ798590,{dv_land_coversdv_vegatation_covers},4.0,44.77994,-121.99136,652.9
160319,College of Earth Ocean Atmospheric Sciences (CEOAS) GLOBE v-School,10TEQ806890,{dv_land_coversdv_vegatation_covers},2.0,45.04987,-121.97647,1239.3
167006,College of Earth Ocean Atmospheric Sciences (CEOAS) GLOBE v-School,10TEQ814865,{dv_land_coversdv_vegatation_covers},2.0,45.02728,-121.96672,578.0
152602,College of Earth Ocean Atmospheric Sciences (CEOAS) GLOBE v-School,10TER174129,{dv_land_coversdv_vegatation_covers},2.0,45.26938,-122.77819,61.6
152601,College of Earth Ocean Atmospheric Sciences (CEOAS) GLOBE v-School,10TER175129,{dv_land_coversdv_vegatation_covers},2.0,45.26938,-122.77691,60.8
191428,College of Earth Ocean Atmospheric Sciences (CEOAS) GLOBE v-School,10TER207319,{dv_land_coversdv_vegatation_covers},2.0,45.44032,-122.73533,173.7
139988,College of Earth Ocean Atmospheric Sciences (CEOAS) GLOBE v-School,10TER228383,{dv_land_coversdv_vegatation_covers},4.0,45.49786,-122.70818,313.4
145041,College of Earth Ocean Atmospheric Sciences (CEOAS) GLOBE v-School,10TER244388,{dv_land_coversdv_vegatation_covers},8.0,45.50231,-122.68767,85.5
150272,College of Earth Ocean Atmospheric Sciences (CEOAS) GLOBE v-School,10TER246395,{dv_land_coversdv_vegatation_covers},2.0,45.5086,-122.68508,50.4
152259,College of Earth Ocean Atmospheric Sciences (CEOAS) GLOBE v-School,10TER247404,{dv_land_coversdv_vegatation_covers},2.0,45.5167,-122.68375,37.5
146518,College of Earth Ocean Atmospheric Sciences (CEOAS) GLOBE v-School,10TER248397,{dv_land_coversdv_vegatation_covers},4.0,45.51039,-122.68251,45.4
191682,College of Earth Ocean Atmospheric Sciences (CEOAS) GLOBE v-School,10TER248402,{dv_land_coversdv_vegatation_covers},2.0,45.51489,-122.68248,26.2
161750,College of Earth Ocean Atmospheric Sciences (CEOAS) GLOBE v-School,10TER249398,{dv_land_coversdv_vegatation_covers},4.0,45.51129,-122.68122,38.7
148670,College of Earth Ocean Atmospheric Sciences (CEOAS) GLOBE v-School,10TER252401,{dv_land_coversdv_vegatation_covers},2.0,45.51398,-122.67737,20.4
148669,College of Earth Ocean Atmospheric Sciences (CEOAS) GLOBE v-School,10TER252403,{dv_land_coversdv_vegatation_covers},4.0,45.51578,-122.67736,17.4
146723,College of Earth Ocean Atmospheric Sciences (CEOAS) GLOBE v-School,10TER253384,{dv_land_coversdv_vegatation_covers},3.0,45.49867,-122.67618,44.4
152388,College of Earth Ocean Atmospheric Sciences (CEOAS) GLOBE v-School,10TER253386,{dv_land_coversdv_vegatation_covers},2.0,45.50047,-122.67617,37.2
137192,College of Earth Ocean Atmospheric Sciences (CEOAS) GLOBE v-School,10TER254398,{dv_land_coversdv_vegatation_covers},2.0,45.51127,-122.67482,15.9
144553,College of Earth Ocean Atmospheric Sciences (CEOAS) GLOBE v-School,10TER255389,{dv_land_coversdv_vegatation_covers},3.0,45.50317,-122.67359,18.9
146366,College of Earth Ocean Atmospheric Sciences (CEOAS) GLOBE v-School,10TER256375,{dv_land_coversdv_vegatation_covers},4.0,45.49056,-122.67238,11.9
143874,College of Earth Ocean Atmospheric Sciences (CEOAS) GLOBE v-School,10TER256380,{dv_land_coversdv_vegatation_covers},15.0,45.49506,-122.67236,11.6
138449,College of Earth Ocean Atmospheric Sciences (CEOAS) GLOBE v-School,10TER256381,{dv_land_coversdv_vegatation_covers},11.0,45.49596,-122.67235,11.5
135582,College of Earth Ocean Atmospheric Sciences (CEOAS) GLOBE v-School,10TER256382,{dv_land_coversdv_vegatation_covers},23.0,45.49686,-122.67235,12.5
149089,College of Earth Ocean Atmospheric Sciences (CEOAS) GLOBE v-School,10TER256389,{dv_land_coversdv_vegatation_covers},4.0,45.50316,-122.67231,9.4
138339,College of Earth Ocean Atmospheric Sciences (CEOAS) GLOBE v-School,10TER257354,{dv_land_coversdv_vegatation_covers},7.0,45.47166,-122.67121,14.0
138453,College of Earth Ocean Atmospheric Sciences (CEOAS) GLOBE v-School,10TER257355,{dv_land_coversdv_vegatation_covers},6.0,45.47256,-122.67121,13.6
144576,College of Earth Ocean Atmospheric Sciences (CEOAS) GLOBE v-School,10TER257356,{dv_land_coversdv_vegatation_covers},4.0,45.47346,-122.6712,11.9
137919,College of Earth Ocean Atmospheric Sciences (CEOAS) GLOBE v-School,10TER257359,{dv_land_coversdv_vegatation_covers},6.0,45.47616,-122.67119,9.9
142533,College of Earth Ocean Atmospheric Sciences (CEOAS) GLOBE v-School,10TER257381,{dv_land_coversdv_vegatation_covers},9.0,45.49596,-122.67107,10.8
135695,College of Earth Ocean Atmospheric Sciences (CEOAS) GLOBE v-School,10TER257382,{dv_land_coversdv_vegatation_covers},11.0,45.49686,-122.67107,11.3
141885,College of Earth Ocean Atmospheric Sciences (CEOAS) GLOBE v-School,10TER257383,{dv_land_coversdv_vegatation_covers},9.0,45.49776,-122.67106,11.6
151524,College of Earth Ocean Atmospheric Sciences (CEOAS) GLOBE v-School,10TER257407,{dv_land_coversdv_vegatation_covers},3.0,45.51936,-122.67094,10.6
137293,College of Earth Ocean Atmospheric Sciences (CEOAS) GLOBE v-School,10TER258355,{dv_land_coversdv_vegatation_covers},11.0,45.47255,-122.66993,8.0
193348,College of Earth Ocean Atmospheric Sciences (CEOAS) GLOBE v-School,10TER258356,{dv_land_coversdv_vegatation_covers},8.0,45.47345,-122.66992,8.6
137284,College of Earth Ocean Atmospheric Sciences (CEOAS) GLOBE v-School,10TER258357,{dv_land_coversdv_vegatation_covers},6.0,45.47435,-122.66992,10.2
144066,College of Earth Ocean Atmospheric Sciences (CEOAS) GLOBE v-School,10TER258377,{dv_land_coversdv_vegatation_covers},10.0,45.49235,-122.66981,11.7
146064,College of Earth Ocean Atmospheric Sciences (CEOAS) GLOBE v-School,10TER258378,{dv_land_coversdv_vegatation_covers},4.0,45.49325,-122.66981,10.7
135670,College of Earth Ocean Atmospheric Sciences (CEOAS) GLOBE v-School,10TER258381,{dv_land_coversdv_vegatation_covers},3.0,45.49595,-122.66979,11.8
139940,College of Earth Ocean Atmospheric Sciences (CEOAS) GLOBE v-School,10TER259382,{dv_land_coversdv_vegatation_covers},12.0,45.49685,-122.66851,13.2
137624,College of Earth Ocean Atmospheric Sciences (CEOAS) GLOBE v-School,10TER259383,{dv_land_coversdv_vegatation_covers},21.0,45.49775,-122.6685,11.9
137539,College of Earth Ocean Atmospheric Sciences (CEOAS) GLOBE v-School,10TER259384,{dv_land_coversdv_vegatation_covers},58.0,45.49865,-122.6685,8.4
150616,College of Earth Ocean Atmospheric Sciences (CEOAS) GLOBE v-School,10TER259399,{dv_land_coversdv_vegatation_covers},4.0,45.51215,-122.66842,3.0
149086,College of Earth Ocean Atmospheric Sciences (CEOAS) GLOBE v-School,10TER260394,{dv_land_coversdv_vegatation_covers},3.0,45.50765,-122.66716,3.0
149557,College of Earth Ocean Atmospheric Sciences (CEOAS) GLOBE v-School,10TER266379,{dv_land_coversdv_vegatation_covers},2.0,45.49412,-122.65956,3.6
166096,College of Earth Ocean Atmospheric Sciences (CEOAS) GLOBE v-School,10TER266524,{dv_land_coversdv_vegatation_covers},2.0,45.62464,-122.65877,15.7
149559,College of Earth Ocean Atmospheric Sciences (CEOAS) GLOBE v-School,10TER271363,{dv_land_coversdv_vegatation_covers},2.0,45.4797,-122.65325,4.5
149131,College of Earth Ocean Atmospheric Sciences (CEOAS) GLOBE v-School,10TER273394,{dv_land_coversdv_vegatation_covers},2.0,45.5076,-122.65052,16.6
149128,College of Earth Ocean Atmospheric Sciences (CEOAS) GLOBE v-School,10TER274395,{dv_land_coversdv_vegatation_covers},3.0,45.50849,-122.64924,17.5
149859,College of Earth Ocean Atmospheric Sciences (CEOAS) GLOBE v-School,10TER280382,{dv_land_coversdv_vegatation_covers},3.0,45.49677,-122.64163,20.9
152244,College of Earth Ocean Atmospheric Sciences (CEOAS) GLOBE v-School,10TER285391,{dv_land_coversdv_vegatation_covers},2.0,45.50485,-122.63518,38.5
168080,College of Earth Ocean Atmospheric Sciences (CEOAS) GLOBE v-School,10TER434454,{dv_land_coversdv_vegatation_covers},4.0,45.56079,-122.44389,4.4
150298,College of Earth Ocean Atmospheric Sciences (CEOAS) GLOBE v-School,10TER485433,{dv_land_coversdv_vegatation_covers},2.0,45.54155,-122.37876,12.7
150296,College of Earth Ocean Atmospheric Sciences (CEOAS) GLOBE v-School,10TER490441,{dv_land_coversdv_vegatation_covers},2.0,45.54871,-122.37227,10.0
150297,College of Earth Ocean Atmospheric Sciences (CEOAS) GLOBE v-School,10TER495448,{dv_land_coversdv_vegatation_covers},2.0,45.55498,-122.3658,7.9
150312,College of Earth Ocean Atmospheric Sciences (CEOAS) GLOBE v-School,10TER504470,{dv_land_coversdv_vegatation_covers},3.0,45.57471,-122.35404,3.8
150303,College of Earth Ocean Atmospheric Sciences (CEOAS) GLOBE v-School,10TER514461,{dv_land_coversdv_vegatation_covers},2.0,45.56654,-122.34132,3.7
150304,College of Earth Ocean Atmospheric Sciences (CEOAS) GLOBE v-School,10TER518457,{dv_land_coversdv_vegatation_covers},3.0,45.56291,-122.33624,3.8
175411,College of Earth Ocean Atmospheric Sciences (CEOAS) GLOBE v-School,10TER557191,{dv_land_coversdv_vegatation_covers},3.0,45.3232,-122.28928,160.4
160051,College of Earth Ocean Atmospheric Sciences (CEOAS) GLOBE v-School,10TER578424,{dv_land_coversdv_vegatation_covers},2.0,45.53274,-122.25975,264.1
177481,College of Earth Ocean Atmospheric Sciences (CEOAS) GLOBE v-School,10TER580272,{dv_land_coversdv_vegatation_covers},8.0,45.39591,-122.25898,299.0
151070,College of Earth Ocean Atmospheric Sciences (CEOAS) GLOBE v-School,10TER663018,{dv_land_coversdv_vegatation_covers},3.0,45.16656,-122.15635,263.8
150295,College of Earth Ocean Atmospheric Sciences (CEOAS) GLOBE v-School,10TER754546,{dv_land_coversdv_vegatation_covers},2.0,45.64085,-122.03249,228.7
149951,College of Earth Ocean Atmospheric Sciences (CEOAS) GLOBE v-School,10TER793229,{dv_land_coversdv_vegatation_covers},2.0,45.35513,-121.98758,375.6
149989,College of Earth Ocean Atmospheric Sciences (CEOAS) GLOBE v-School,10TER822216,{dv_land_coversdv_vegatation_covers},2.0,45.34309,-121.95077,427.8
155041,College of Earth Ocean Atmospheric Sciences (CEOAS) GLOBE v-School,10TER824890,{dv_land_coversdv_vegatation_covers},2.0,45.94963,-121.93681,478.2
155044,College of Earth Ocean Atmospheric Sciences (CEOAS) GLOBE v-School,10TER826887,{dv_land_coversdv_vegatation_covers},2.0,45.9469,-121.93428,464.5
155043,College of Earth Ocean Atmospheric Sciences (CEOAS) GLOBE v-School,10TER826889,{dv_land_coversdv_vegatation_covers},2.0,45.9487,-121.93424,472.8
145623,College of Earth Ocean Atmospheric Sciences (CEOAS) GLOBE v-School,10TER829216,{dv_land_coversdv_vegatation_covers},3.0,45.34301,-121.94184,436.4
186952,College of Earth Ocean Atmospheric Sciences (CEOAS) GLOBE v-School,10TER830156,{dv_land_coversdv_vegatation_covers},2.0,45.289,-121.94157,495.6
207456,College of Earth Ocean Atmospheric Sciences (CEOAS) GLOBE v-School,10TER838218,{dv_land_coversdv_vegatation_covers},3.0,45.3447,-121.93032,443.0
159634,College of Earth Ocean Atmospheric Sciences (CEOAS) GLOBE v-School,10TER859579,{dv_land_coversdv_vegatation_covers},4.0,45.66933,-121.89719,25.2
188254,College of Earth Ocean Atmospheric Sciences (CEOAS) GLOBE v-School,10TER860188,{dv_land_coversdv_vegatation_covers},2.0,45.31744,-121.90277,537.6
159636,College of Earth Ocean Atmospheric Sciences (CEOAS) GLOBE v-School,10TER861578,{dv_land_coversdv_vegatation_covers},2.0,45.6684,-121.89464,28.8
159594,College of Earth Ocean Atmospheric Sciences (CEOAS) GLOBE v-School,10TER861579,{dv_land_coversdv_vegatation_covers},4.0,45.6693,-121.89463,28.8
159610,College of Earth Ocean Atmospheric Sciences (CEOAS) GLOBE v-School,10TER861580,{dv_land_coversdv_vegatation_covers},3.0,45.6702,-121.89461,23.9
190697,College of Earth Ocean Atmospheric Sciences (CEOAS) GLOBE v-School,10TER888172,{dv_land_coversdv_vegatation_covers},3.0,45.30269,-121.86734,643.0
203064,College of Earth Ocean Atmospheric Sciences (CEOAS) GLOBE v-School,10TER895196,{dv_land_coversdv_vegatation_covers},3.0,45.3242,-121.85797,1017.1
150001,College of Earth Ocean Atmospheric Sciences (CEOAS) GLOBE v-School,10TER957172,{dv_land_coversdv_vegatation_covers},2.0,45.30178,-121.77934,1098.9
150017,College of Earth Ocean Atmospheric Sciences (CEOAS) GLOBE v-School,10TER959172,{dv_land_coversdv_vegatation_covers},2.0,45.30175,-121.77679,1104.4
204574,College of Earth Ocean Atmospheric Sciences (CEOAS) GLOBE v-School,10TER962189,{dv_land_coversdv_vegatation_covers},2.0,45.31701,-121.77264,1169.8
168124,College of Earth Ocean Atmospheric Sciences (CEOAS) GLOBE v-School,10TER982001,{dv_land_coversdv_vegatation_covers},4.0,45.14755,-121.75084,987.9
153408,College of Earth Ocean Atmospheric Sciences (CEOAS) GLOBE v-School,10TES044081,{dv_land_coversdv_vegatation_covers},2.0,46.12646,-122.94305,5.3
153370,College of Earth Ocean Atmospheric Sciences (CEOAS) GLOBE v-School,10TES044082,{dv_land_coversdv_vegatation_covers},2.0,46.12736,-122.94305,5.6
177491,College of Earth Ocean Atmospheric Sciences (CEOAS) GLOBE v-School,10TFQ403575,{dv_land_coversdv_vegatation_covers},3.0,44.75713,-121.22736,417.1
208375,College of Earth Ocean Atmospheric Sciences (CEOAS) GLOBE v-School,10TFR009310,{dv_land_coversdv_vegatation_covers},2.0,45.42524,-121.71021,1501.7
209675,College of Earth Ocean Atmospheric Sciences (CEOAS) GLOBE v-School,10TFR014211,{dv_land_coversdv_vegatation_covers},2.0,45.33608,-121.70586,1878.7
177493,College of Earth Ocean Atmospheric Sciences (CEOAS) GLOBE v-School,10TFR034014,{dv_land_coversdv_vegatation_covers},3.0,45.1585,-121.68444,1073.6
209672,College of Earth Ocean Atmospheric Sciences (CEOAS) GLOBE v-School,10TFR034168,{dv_land_coversdv_vegatation_covers},3.0,45.29709,-121.68124,1332.7
171658,College of Earth Ocean Atmospheric Sciences (CEOAS) GLOBE v-School,10TFR064305,{dv_land_coversdv_vegatation_covers},2.0,45.41993,-121.64004,1427.2
153994,College of Earth Ocean Atmospheric Sciences (CEOAS) GLOBE v-School,10TFR069199,{dv_land_coversdv_vegatation_covers},3.0,45.32446,-121.63594,1374.1
153993,College of Earth Ocean Atmospheric Sciences (CEOAS) GLOBE v-School,10TFR070199,{dv_land_coversdv_vegatation_covers},3.0,45.32445,-121.63467,1372.4
180915,College of Earth Ocean Atmospheric Sciences (CEOAS) GLOBE v-School,10TFR078217,{dv_land_coversdv_vegatation_covers},2.0,45.34052,-121.62407,1606.2
171661,College of Earth Ocean Atmospheric Sciences (CEOAS) GLOBE v-School,10TFR080194,{dv_land_coversdv_vegatation_covers},3.0,45.31979,-121.62202,1314.1
153973,College of Earth Ocean Atmospheric Sciences (CEOAS) GLOBE v-School,10TFR117417,{dv_land_coversdv_vegatation_covers},2.0,45.51988,-121.56977,494.7
153997,College of Earth Ocean Atmospheric Sciences (CEOAS) GLOBE v-School,10TFR118416,{dv_land_coversdv_vegatation_covers},2.0,45.51897,-121.56851,498.3
153996,College of Earth Ocean Atmospheric Sciences (CEOAS) GLOBE v-School,10TFR123252,{dv_land_coversdv_vegatation_covers},2.0,45.37131,-121.56586,1013.5
160049,College of Earth Ocean Atmospheric Sciences (CEOAS) GLOBE v-School,10TFR663605,{dv_land_coversdv_vegatation_covers},2.0,45.67809,-120.86466,236.2
160048,College of Earth Ocean Atmospheric Sciences (CEOAS) GLOBE v-School,10TFR664605,{dv_land_coversdv_vegatation_covers},2.0,45.67807,-120.86337,235.4
149441,College of Earth Ocean Atmospheric Sciences (CEOAS) GLOBE v-School,10TFR828664,{dv_land_coversdv_vegatation_covers},2.0,45.727,-120.65074,82.6
149424,College of Earth Ocean Atmospheric Sciences (CEOAS) GLOBE v-School,10TGR176667,{dv_land_coversdv_vegatation_covers},3.0,45.71963,-120.20387,84.2
149422,College of Earth Ocean Atmospheric Sciences (CEOAS) GLOBE v-School,11TKL849792,{dv_land_coversdv_vegatation_covers},2.0,45.83279,-119.76961,85.4
149421,College of Earth Ocean Atmospheric Sciences (CEOAS) GLOBE v-School,11TKL912798,{dv_land_coversdv_vegatation_covers},3.0,45.84012,-119.68884,91.3
149403,College of Earth Ocean Atmospheric Sciences (CEOAS) GLOBE v-School,11TLL599589,{dv_land_coversdv_vegatation_covers},3.0,45.66949,-118.79865,321.8
149381,College of Earth Ocean Atmospheric Sciences (CEOAS) GLOBE v-School,11TLL826504,{dv_land_coversdv_vegatation_covers},2.0,45.59723,-118.50528,1100.6
149368,College of Earth Ocean Atmospheric Sciences (CEOAS) GLOBE v-School,11TLL855440,{dv_land_coversdv_vegatation_covers},3.0,45.54012,-118.46661,1187.1
149352,College of Earth Ocean Atmospheric Sciences (CEOAS) GLOBE v-School,11TLL933317,{dv_land_coversdv_vegatation_covers},2.0,45.43068,-118.36406,1241.2
159984,College of Earth Ocean Atmospheric Sciences (CEOAS) GLOBE v-School,11TLM415172,{dv_land_coversdv_vegatation_covers},2.0,46.18992,-119.05401,108.3
159981,College of Earth Ocean Atmospheric Sciences (CEOAS) GLOBE v-School,11TLM416174,{dv_land_coversdv_vegatation_covers},2.0,46.19174,-119.05278,104.8
159982,College of Earth Ocean Atmospheric Sciences (CEOAS) GLOBE v-School,11TLM418174,{dv_land_coversdv_vegatation_covers},4.0,46.19179,-119.05019,106.2
159980,College of Earth Ocean Atmospheric Sciences (CEOAS) GLOBE v-School,11TLM427184,{dv_land_coversdv_vegatation_covers},4.0,46.20099,-119.03886,106.4
159985,College of Earth Ocean Atmospheric Sciences (CEOAS) GLOBE v-School,11TLM430165,{dv_land_coversdv_vegatation_covers},2.0,46.18397,-119.03435,110.7
159977,College of Earth Ocean Atmospheric Sciences (CEOAS) GLOBE v-School,11TMM956350,{dv_land_coversdv_vegatation_covers},2.0,46.36856,-117.05721,230.5
163183,College of Earth Ocean Atmospheric Sciences (CEOAS) GLOBE v-School,11TMN217377,{dv_land_coversdv_vegatation_covers},2.0,47.2881,-118.0355,606.0
164716,College of Earth Ocean Atmospheric Sciences (CEOAS) GLOBE v-School,11TPM782565,{dv_land_coversdv_vegatation_covers},4.0,46.53845,-114.67596,1092.5
164709,College of Earth Ocean Atmospheric Sciences (CEOAS) GLOBE v-School,11TPM853674,{dv_land_coversdv_vegatation_covers},3.0,46.63454,-114.57908,1594.3
163186,College of Earth Ocean Atmospheric Sciences (CEOAS) GLOBE v-School,11TPN695159,{dv_land_coversdv_vegatation_covers},2.0,47.07484,-114.76733,872.1
164696,College of Earth Ocean Atmospheric Sciences (CEOAS) GLOBE v-School,12TTS724943,{dv_land_coversdv_vegatation_covers},2.0,46.86327,-113.98621,978.7
164691,College of Earth Ocean Atmospheric Sciences (CEOAS) GLOBE v-School,12TTS726945,{dv_land_coversdv_vegatation_covers},3.0,46.86514,-113.98369,975.5
164687,College of Earth Ocean Atmospheric Sciences (CEOAS) GLOBE v-School,12TTS750943,{dv_land_coversdv_vegatation_covers},3.0,46.86415,-113.95214,973.0
164684,College of Earth Ocean Atmospheric Sciences (CEOAS) GLOBE v-School,12TUS665396,{dv_land_coversdv_vegatation_covers},2.0,46.39679,-112.73655,1378.1
164263,College of Earth Ocean Atmospheric Sciences (CEOAS) GLOBE v-School,12TVR571823,{dv_land_coversdv_vegatation_covers},2.0,45.89293,-111.55297,1240.5
164311,College of Earth Ocean Atmospheric Sciences (CEOAS) GLOBE v-School,12TVR956568,{dv_land_coversdv_vegatation_covers},8.0,45.66474,-111.05648,1491.5
164492,College of Earth Ocean Atmospheric Sciences (CEOAS) GLOBE v-School,12TVR958573,{dv_land_coversdv_vegatation_covers},4.0,45.66924,-111.05392,1483.6
164512,College of Earth Ocean Atmospheric Sciences (CEOAS) GLOBE v-School,12TVR961573,{dv_land_coversdv_vegatation_covers},4.0,45.66924,-111.05007,1489.5
164511,College of Earth Ocean Atmospheric Sciences (CEOAS) GLOBE v-School,12TVR961574,{dv_land_coversdv_vegatation_covers},2.0,45.67014,-111.05007,1485.9
164548,College of Earth Ocean Atmospheric Sciences (CEOAS) GLOBE v-School,12TVR961584,{dv_land_coversdv_vegatation_covers},3.0,45.67914,-111.05008,1468.2
164530,College of Earth Ocean Atmospheric Sciences (CEOAS) GLOBE v-School,12TVR962568,{dv_land_coversdv_vegatation_covers},3.0,45.66474,-111.04878,1499.9
164429,College of Earth Ocean Atmospheric Sciences (CEOAS) GLOBE v-School,12TWQ225869,{dv_land_coversdv_vegatation_covers},2.0,45.0352,-110.71435,1611.4
164380,College of Earth Ocean Atmospheric Sciences (CEOAS) GLOBE v-School,12TWR803750,{dv_land_coversdv_vegatation_covers},3.0,45.82389,-109.96624,1252.8
163217,College of Earth Ocean Atmospheric Sciences (CEOAS) GLOBE v-School,12TWT245953,{dv_land_coversdv_vegatation_covers},3.0,47.81059,-110.67276,801.9
163547,College of Earth Ocean Atmospheric Sciences (CEOAS) GLOBE v-School,12TWT862855,{dv_land_coversdv_vegatation_covers},4.0,47.71712,-109.8507,743.0
163546,College of Earth Ocean Atmospheric Sciences (CEOAS) GLOBE v-School,12TWT864855,{dv_land_coversdv_vegatation_covers},3.0,47.7171,-109.84803,743.5
164202,College of Earth Ocean Atmospheric Sciences (CEOAS) GLOBE v-School,12UVU367729,{dv_land_coversdv_vegatation_covers},3.0,48.50603,-111.857,1000.3
163548,College of Earth Ocean Atmospheric Sciences (CEOAS) GLOBE v-School,12UWU569200,{dv_land_coversdv_vegatation_covers},3.0,48.03075,-110.23676,766.5
164145,College of Earth Ocean Atmospheric Sciences (CEOAS) GLOBE v-School,14ULU292450,{dv_land_coversdv_vegatation_covers},3.0,48.2352,-101.30023,474.7
169954,College of Earth Ocean Atmospheric Sciences (CEOAS) GLOBE v-School,15TUJ059803,{dv_land_coversdv_vegatation_covers},2.0,44.05017,-95.423,436.1
168522,College of Earth Ocean Atmospheric Sciences (CEOAS) GLOBE v-School,15TVK869716,{dv_land_coversdv_vegatation_covers},4.0,44.8977,-93.16592,215.0
164030,College of Earth Ocean Atmospheric Sciences (CEOAS) GLOBE v-School,15TWK129863,{dv_land_coversdv_vegatation_covers},5.0,45.03004,-92.83624,284.3
164031,College of Earth Ocean Atmospheric Sciences (CEOAS) GLOBE v-School,15TWK130863,{dv_land_coversdv_vegatation_covers},8.0,45.03003,-92.83497,284.8
164029,College of Earth Ocean Atmospheric Sciences (CEOAS) GLOBE v-School,15TWK130864,{dv_land_coversdv_vegatation_covers},3.0,45.03093,-92.83497,287.0
169951,College of Earth Ocean Atmospheric Sciences (CEOAS) GLOBE v-School,15TWN443185,{dv_land_coversdv_vegatation_covers},5.0,47.11852,-92.41601,434.0
169953,College of Earth Ocean Atmospheric Sciences (CEOAS) GLOBE v-School,15TWN444184,{dv_land_coversdv_vegatation_covers},3.0,47.11761,-92.4147,429.4
169952,College of Earth Ocean Atmospheric Sciences (CEOAS) GLOBE v-School,15TWN454185,{dv_land_coversdv_vegatation_covers},2.0,47.11844,-92.40151,425.3
162210,College of Earth Ocean Atmospheric Sciences (CEOAS) GLOBE v-School,17TLG301916,{dv_land_coversdv_vegatation_covers},4.0,42.35812,-83.06306,193.8
170594,College of Earth Ocean Atmospheric Sciences (CEOAS) GLOBE v-School,18SUJ617494,{dv_land_coversdv_vegatation_covers},3.0,39.28293,-76.60351,1.5
29838,Collinwood Middle School,CMS1:LCS-01,{dv_land_coversdv_vegatation_covers},2.0,35.108,-87.4427,217.0
36983,Colorado GLOBE v-School,Boulder CO,{dv_land_coversdv_vegatation_covers},4.0,40.0,-105.0,1600.0
11293,Complex of Schools C.K. Norwida in Częstochowa,Odkrywka:LCS-01,{dv_land_coversdv_vegatation_covers},2.0,50.8183,19.1195,215.2
120950,Complex of Schools  F. Dury in Chmielów,34UEA474963,{dv_land_coversdv_vegatation_covers},3.0,50.51674,21.66859,153.3
11273,Complex of Schools in Jasionka,Ogrodek:GRN-01,{dv_land_coversdv_vegatation_covers},2.0,50.1227,22.0578,198.0
10872,Complex of Schools No. 4 in Rzeszów,Gim 7 RZ/PL/122:LCS-02,{dv_land_coversdv_vegatation_covers},2.0,50.0058,21.59,696.1
10881,Complex of Schools No. 4 in Rzeszów,lisia gora 2011:LCS-11,{dv_land_coversdv_vegatation_covers},2.0,50.1466,22.1738,144.2
10878,Complex of Schools No. 4 in Rzeszów,lisia gora Gim7:LCS-08,{dv_land_coversdv_vegatation_covers},2.0,50.1466,22.1738,144.2
10880,Complex of Schools No. 4 in Rzeszów,park olszynki2011:LCS-10,{dv_land_coversdv_vegatation_covers},2.0,50.1466,22.1738,144.2
10874,Complex of Schools No. 4 in Rzeszów,park olszynki Gim 7 RZ/PL124:LCS-04,{dv_land_coversdv_vegatation_covers},2.0,50.0145,21.5993,162.2
10875,Complex of Schools No. 4 in Rzeszów,park olszynki Gim 7 RZ/PL125:LCS-05,{dv_land_coversdv_vegatation_covers},2.0,50.0151,21.5989,157.2
10873,Complex of Schools No. 4 in Rzeszów,park slocina Gim 7 RZ/PL/123:LCS-03,{dv_land_coversdv_vegatation_covers},2.0,50.0204,22.0276,656.9
10876,Complex of Schools No. 4 in Rzeszów,park WSK 126:LCS-06,{dv_land_coversdv_vegatation_covers},2.0,50.0112,21.5974,139.2
10877,Complex of Schools No. 4 in Rzeszów,park WSK 127:LCS-07,{dv_land_coversdv_vegatation_covers},2.0,50.0115,21.596,86.1
10879,Complex of Schools No. 4 in Rzeszów,WSK GIM 7:LCS-09,{dv_land_coversdv_vegatation_covers},3.0,50.1466,22.1738,144.2
11493,Complex of Schools No 5 in Zabrze,&#321;YSE POLE:LCS-02,{dv_land_coversdv_vegatation_covers},3.0,50.1721,18.4612,223.2
11492,Complex of Schools No 5 in Zabrze,Maciejow:LCS-01,{dv_land_coversdv_vegatation_covers},3.0,50.1929,18.4447,176.3
100676,Complex of Schools No. 73 L Ruy Barbosa High School,34UEC017902,{dv_land_coversdv_vegatation_covers},2.0,52.26218,21.02491,83.3
165485,Complex of Schools No. 73 L Ruy Barbosa High School,34UFE305866,{dv_land_coversdv_vegatation_covers},6.0,54.01117,22.99152,176.3
10471,Complex of Secondary Schools no 1 Jana Pawła II in Przysucha,park:LCS-01,{dv_land_coversdv_vegatation_covers},2.0,51.3667,20.6333,200.0
9171,CONALEP Plantel Gustavo Baz,ZONA FORESTADA DEL LAGO DE GUADALUPE:BIO-01,{dv_land_coversdv_vegatation_covers},2.0,19.3753,-99.15,2286.1
9173,CONALEP Plantel Gustavo Baz,ZONA FORESTADA DEL LAGO DE GUADALUPE:LCS-02,{dv_land_coversdv_vegatation_covers},4.0,19.3753,-99.15,2291.1
28362,Continental Elementary School,School Location:BIO-01,{dv_land_coversdv_vegatation_covers},2.0,41.1043,-84.2657,230.0
26849,Corcoran High School,Elmwood park:BIO-02,{dv_land_coversdv_vegatation_covers},2.0,43.0175,-76.1713,364.0
26848,Corcoran High School,School Location:BIO-01,{dv_land_coversdv_vegatation_covers},3.0,43.0175,-76.171,415.0
153381,CPEM N° 7,Plaza San Martin- Junin de los Andes,{dv_land_coversdv_vegatation_covers},2.0,-39.95097,-71.0708,780.2
19854,Crescent Elk School,Florence Keller  Park:BIO-02,{dv_land_coversdv_vegatation_covers},2.0,41.8082,-124.1497,22.0
19853,Crescent Elk School,School Location:BIO-01,{dv_land_coversdv_vegatation_covers},2.0,41.756,-124.2027,202.0
23966,Crescent Park School,School Location:BIO-01,{dv_land_coversdv_vegatation_covers},2.0,44.4037,-70.783,226.0
148406,Crestwood High School,Crestwood High School-Front of School,{dv_land_coversdv_vegatation_covers},3.0,42.32179,-83.2926,189.6
138272,Croatia Citizen Science,33TWL331527,{dv_land_coversdv_vegatation_covers},9.0,45.62706,15.42463,276.7
140444,Croatia Citizen Science,33TWL331528,{dv_land_coversdv_vegatation_covers},5.0,45.62796,15.42463,280.9
107290,Croatia Citizen Science,33TWL420377,{dv_land_coversdv_vegatation_covers},4.0,45.49157,15.53751,109.8
107291,Croatia Citizen Science,33TWL431385,{dv_land_coversdv_vegatation_covers},4.0,45.4987,15.55166,111.9
183561,Croatia GLOBE v-School,Maksimir,{dv_land_coversdv_vegatation_covers},3.0,45.82351,16.01736,131.9
183562,Croatia GLOBE v-School,Maksimir 3,{dv_land_coversdv_vegatation_covers},3.0,45.82351,16.01736,131.9
138821,Croatia GLOBE v-School,Nova ves,{dv_land_coversdv_vegatation_covers},2.0,45.82505,15.97911,199.6
138828,Croatia GLOBE v-School,OŠ Ivana Gundulića Osijek,{dv_land_coversdv_vegatation_covers},2.0,45.55555,18.68372,90.0
33947,Croatia GLOBE v-School,Suma iza skole,{dv_land_coversdv_vegatation_covers},19.0,46.1962,15.8332,197.0
6480,Csokonai Vitéz Mihály Gimnázium,Debrecen / Nagyerd&#337;:BIO-05,{dv_land_coversdv_vegatation_covers},2.0,47.877,21.9998,121.0
6483,Csokonai Vitéz Mihály Gimnázium,Nagyerd?2:LCS-01,{dv_land_coversdv_vegatation_covers},5.0,47.5597,21.6187,80.1
6476,Csokonai Vitéz Mihály Gimnázium,Nagyerd&#337; 2:BIO-01,{dv_land_coversdv_vegatation_covers},2.0,47.877,21.9998,121.0
30222,Curington Elementary School,Curington Elementary School~2010 Climate and Land Cover Event:LCS-01,{dv_land_coversdv_vegatation_covers},3.0,29.8047,-98.7287,448.0
30035,Cypress Grove,Cypress Grove Study Site:LCS-02,{dv_land_coversdv_vegatation_covers},2.0,30.5667,-96.2833,78.0
19804,Dana Middle School,School Location:BIO-01,{dv_land_coversdv_vegatation_covers},3.0,34.1242,-118.0282,115.0
30005,David K. Sellars Fine Arts Academy,Roberts Farm:LCS-01,{dv_land_coversdv_vegatation_covers},2.0,33.1774,-97.1715,254.8
24245,Davidson Elementary School,School Location:BIO-01,{dv_land_coversdv_vegatation_covers},2.0,42.1922,-83.1938,176.0
31896,Davis Middle School,School Location:BIO-01,{dv_land_coversdv_vegatation_covers},2.0,41.2683,-110.963,2176.0
6380,Deák Ferenc Gimnázium,Birho:LCS-01,{dv_land_coversdv_vegatation_covers},2.0,47.9849,22.5139,110.1
155445,Denmark Citizen Science,33UUB455628,{dv_land_coversdv_vegatation_covers},2.0,55.58662,12.54859,-0.6
25705,Devils Lake High School,School Location:BIO-01,{dv_land_coversdv_vegatation_covers},3.0,48.1268,-98.8688,486.0
506,Dirranbandi P 10 Campus,Dirranbandi P-10 Campus:BIO-01,{dv_land_coversdv_vegatation_covers},3.0,-28.6667,148.4167,167.0
19611,Divisadero Middle School,Kaweah Oaks Preserve:LCS-01,{dv_land_coversdv_vegatation_covers},2.0,36.3288,-119.1717,69.0
31334,Dodgeland Middle School,School Location:BIO-01,{dv_land_coversdv_vegatation_covers},2.0,43.305,-88.8447,258.0
157574,Donmoddaengwittayakom School,48PWC025001,{dv_land_coversdv_vegatation_covers},2.0,15.37768,105.0233,126.1
24220,Dowagiac Central Middle School,ELKS BIOLOGY:BIO-02,{dv_land_coversdv_vegatation_covers},2.0,41.9813,-86.0993,216.0
24221,Dowagiac Central Middle School,Elks Biology/Land cover:LCS-01,{dv_land_coversdv_vegatation_covers},2.0,44.9813,-86.0993,216.0
8962,Dr Ibrahim Temo - Niko Nestor,kafasan forest:LCS-02,{dv_land_coversdv_vegatation_covers},2.0,41.15,20.62,989.0
8961,Dr Ibrahim Temo - Niko Nestor,Radozda forest:LCS-01,{dv_land_coversdv_vegatation_covers},2.0,41.1,20.6252,742.0
2813,Dr. von Morgenstern Schulen II,School Location:BIO-01,{dv_land_coversdv_vegatation_covers},2.0,52.3333,10.5333,73.0
29523,DuBose Middle School,School Location:BIO-01,{dv_land_coversdv_vegatation_covers},2.0,33.0327,-80.2377,32.0
17986,Dunbar Creative Performing Arts,Baker High School:LCS-01,{dv_land_coversdv_vegatation_covers},2.0,30.67,-88.25,96.8
13967,Durham Johnstone School,Flass Vale:LCS-01,{dv_land_coversdv_vegatation_covers},2.0,54.7787,-1.5957,96.0
27107,Dutchess Academy Of Environmental Studies,Esopus 1:BIO-04,{dv_land_coversdv_vegatation_covers},2.0,41.8263,-73.9478,10.0
27106,Dutchess Academy Of Environmental Studies,ESOPUS2:BIO-03,{dv_land_coversdv_vegatation_covers},2.0,41.8258,-73.9475,10.0
27105,Dutchess Academy Of Environmental Studies,Esopus 3:BIO-02,{dv_land_coversdv_vegatation_covers},2.0,41.8237,-73.9482,10.0
27114,Dutchess Academy Of Environmental Studies,Kitchen Corners:LCS-02,{dv_land_coversdv_vegatation_covers},3.0,41.6,-73.5833,116.0
27108,Dutchess Academy Of Environmental Studies,South Ephemeral Pool Pictal:BIO-05,{dv_land_coversdv_vegatation_covers},10.0,41.8407,-73.9412,116.0
27113,Dutchess Academy Of Environmental Studies,South Ephemeral Pool Pictal:LCS-01,{dv_land_coversdv_vegatation_covers},3.0,41.8407,-73.9412,116.0
23747,Eastland Elementary School,School Location:BIO-01,{dv_land_coversdv_vegatation_covers},2.0,44.9211,-69.2622,85.0
25031,East Prairie High School,Big Oak Tree State Park GLOBE Site:LCS-01,{dv_land_coversdv_vegatation_covers},2.0,36.6385,-89.2865,85.0
25030,East Prairie High School,School Location:BIO-01,{dv_land_coversdv_vegatation_covers},2.0,36.7797,-89.3856,85.0
25324,East Rutherford High,Successional Oak Forest:BIO-01,{dv_land_coversdv_vegatation_covers},3.0,35.32,-81.8689,299.0
29794,East Side Elementary School,School Location:BIO-01,{dv_land_coversdv_vegatation_covers},2.0,36.4148,-89.0408,99.0
1429,Ecole primaire Rebeuvelier,ESSERTS/Mt Chemin:LCS-02,{dv_land_coversdv_vegatation_covers},2.0,47.3232,7.4112,674.0
179412,Ecuador Citizen Science,17MQV852833,{dv_land_coversdv_vegatation_covers},2.0,-0.15094,-78.43783,2585.1
22497,Edgebrook Elementary School,School Location:BIO-01,{dv_land_coversdv_vegatation_covers},2.0,42.3381,-88.2675,228.0
159217,Edgerton High School,16TFL878913,{dv_land_coversdv_vegatation_covers},3.0,41.45132,-84.75165,254.3
26199,Ed. W. Clark High School,School Location:BIO-01,{dv_land_coversdv_vegatation_covers},3.0,36.1372,-115.1978,545.0
192040,EGIRIOKE HIGH SCHOOL IYIN EKITI,31NGJ384470,{dv_land_coversdv_vegatation_covers},3.0,7.6572,5.16109,566.4
182145,Ekonomska i trgovačka škola Dubrovnik,34TBN597274,{dv_land_coversdv_vegatation_covers},10.0,42.66155,18.06798,28.8
145856,Ekonomska i trgovačka škola Dubrovnik,Gospino polje,{dv_land_coversdv_vegatation_covers},5.0,42.64716,18.08471,61.0
182425,Ekonomska i trgovačka škola Dubrovnik,Kamp Solitudo,{dv_land_coversdv_vegatation_covers},4.0,42.6616,18.0691,83.0
150380,Ekonomska i trgovačka škola Dubrovnik,Petka,{dv_land_coversdv_vegatation_covers},4.0,42.65051,18.06273,75.0
6170,Ekonomsko-birotehnicka i trgovacka skola,NOVI BOKANJAC:LCS-02,{dv_land_coversdv_vegatation_covers},13.0,44.15563,15.25038,43.0
32999,Ekonomsko-birotehnicka i trgovacka skola Zadar,Kamp:LCS-03,{dv_land_coversdv_vegatation_covers},38.0,44.1352,15.2149,10.0
48248,Ekonomsko-birotehnicka i trgovacka skola Zadar,Yachting,{dv_land_coversdv_vegatation_covers},36.0,44.1318,15.2094,13.0
6169,Ekonomsko-birotehnicka i trgovacka skola Zadar,ZMIRICI:LCS-01,{dv_land_coversdv_vegatation_covers},38.0,44.1411,15.2327,41.0
106050,Ekonomsko-birotehnicka i trgovacka skola Zadar,Žmirići raskršće,{dv_land_coversdv_vegatation_covers},13.0,44.1392,15.2277,53.0
215466,ekonomsko-birotehnička škola split,karakterizacija Skalice,{dv_land_coversdv_vegatation_covers},2.0,43.51679,16.43815,12.0
47420,ekonomsko-birotehnička škola split,trstenik biometrija,{dv_land_coversdv_vegatation_covers},9.0,43.50204,16.46783,9.3
33967,ekonomsko-birotehnička škola split,turska kula,{dv_land_coversdv_vegatation_covers},7.0,43.52,16.44,51.0
48541,Elayet feda basic school,aldwehria,{dv_land_coversdv_vegatation_covers},2.0,23.31,56.0,501.0
48265,Elayet feda basic school,park,{dv_land_coversdv_vegatation_covers},2.0,23.36,58.23,11.0
104390,Elayet feda basic school,yanqul park,{dv_land_coversdv_vegatation_covers},5.0,23.43,56.43,584.0
17646,Elberta Middle School,Baker High plot:LCS-01,{dv_land_coversdv_vegatation_covers},2.0,30.6,-88.25,96.7
42873,Elementary C  Der Hana,Meteorological Shelter School Yard,{dv_land_coversdv_vegatation_covers},7.0,32.86159,35.35974,234.0
71204,Elkhorn Slough National Estuarine Research Reserve GLOBE v-School,10SFF132753,{dv_land_coversdv_vegatation_covers},5.0,36.81679,-121.73082,38.2
3612,El Motafawkeen Secondary School,School Location:BIO-01,{dv_land_coversdv_vegatation_covers},3.0,30.05,31.25,152.0
31435,Elmwood Elementary School,School Location:BIO-01,{dv_land_coversdv_vegatation_covers},2.0,42.9506,-88.0888,231.0
9983,Elverum videregaende skole,SAVIS:BIO-01,{dv_land_coversdv_vegatation_covers},2.0,60.895,11.5617,190.0
6684,Emek Hachula,School Location:BIO-01,{dv_land_coversdv_vegatation_covers},2.0,33.1667,35.6667,20.0
23754,Emerson School (USMEM7QQ),School Location:BIO-01,{dv_land_coversdv_vegatation_covers},3.0,44.3853,-68.208,21.0
29031,Emmaus High School,Vera Cruz - Faith Road:BIO-03,{dv_land_coversdv_vegatation_covers},3.0,40.501,-75.48,237.3
168183,Empangeni High School,36JUP855218,{dv_land_coversdv_vegatation_covers},3.0,-28.72607,31.82756,87.9
141587,Empangeni High School,36JUP921184,{dv_land_coversdv_vegatation_covers},5.0,-28.75732,31.89481,95.8
144112,Empangeni High School,36JUP921185,{dv_land_coversdv_vegatation_covers},5.0,-28.75642,31.89482,100.1
166402,Empangeni High School,36JUP925185,{dv_land_coversdv_vegatation_covers},3.0,-28.75645,31.89891,85.4
4353,Enon kirkonkylan ala-aste,School Location:BIO-01,{dv_land_coversdv_vegatation_covers},2.0,62.7908,30.1637,128.0
901,EPP Akpakpa - Centre/A,School Location:BIO-01,{dv_land_coversdv_vegatation_covers},4.0,6.3675,2.4505,41.0
22636,Erie High School,Big Bend 1:BIO-02,{dv_land_coversdv_vegatation_covers},2.0,40.6505,-90.012,174.0
51130,Esawiyeh Junior High School for boys,Meteorological  Roof  Shelter,{dv_land_coversdv_vegatation_covers},3.0,31.7983,35.55,720.0
159684,Escuela Básica N° 81 y Colegio Nacional María Auxiliadora,21JVM512918,{dv_land_coversdv_vegatation_covers},2.0,-25.38981,-57.48514,164.2
154921,Escuela Básica N° 81 y Colegio Nacional María Auxiliadora,21JVM534921,{dv_land_coversdv_vegatation_covers},2.0,-25.38717,-57.46326,119.4
132,Escuela de Educacion  Media N 8,VICENTE LOPEZ:LCS-01,{dv_land_coversdv_vegatation_covers},2.0,-34.552,-58.483,42.0
188,Escuela de Ensenanza Media 7 "Nicolas Copernico",GOLF06:LCS-05,{dv_land_coversdv_vegatation_covers},9.0,-34.5094,-58.5361,15.0
187,Escuela de Ensenanza Media 7 "Nicolas Copernico",golf2B:LCS-03,{dv_land_coversdv_vegatation_covers},4.0,-34.5094,-58.5361,15.0
192857,Escuela de Entrenamiento GLOBE Perú,18LTM745736,{dv_land_coversdv_vegatation_covers},2.0,-11.99095,-77.071,59.5
29646,Estill High School,School Location:BIO-01,{dv_land_coversdv_vegatation_covers},15.0,32.7547,-81.2422,23.0
3550,Estonian Learning Expedition,bio4:BIO-02,{dv_land_coversdv_vegatation_covers},2.0,57.9988,26.37,182.0
3568,Estonian Learning Expedition,Heinamaa:LCS-16,{dv_land_coversdv_vegatation_covers},2.0,58.009,26.3909,146.0
3561,Estonian Learning Expedition,Kaariku 31':LCS-09,{dv_land_coversdv_vegatation_covers},5.0,58.0012,26.4029,142.0
3552,Estonian Learning Expedition,mets1:BIO-04,{dv_land_coversdv_vegatation_covers},2.0,58.0192,26.3938,140.0
3549,Estonian Learning Expedition,mets5:BIO-01,{dv_land_coversdv_vegatation_covers},2.0,58.002,26.4025,145.0
3551,Estonian Learning Expedition,Paiumagi:BIO-03,{dv_land_coversdv_vegatation_covers},2.0,58.0037,26.386,170.0
3565,Estonian Learning Expedition,pyhaj2rv_8:LCS-13,{dv_land_coversdv_vegatation_covers},2.0,58.0373,26.4529,127.0
3571,Estonian Learning Expedition,Visu baas:LCS-19,{dv_land_coversdv_vegatation_covers},2.0,58.0049,26.3876,163.0
17287,Etowah Middle School,School Location:BIO-01,{dv_land_coversdv_vegatation_covers},3.0,34.0183,-86.1006,165.0
17723,Excel High School,Baker High School:LCS-01,{dv_land_coversdv_vegatation_covers},2.0,30.67,-88.25,97.8
30238,Fabra Elementary School,LAVERNE/SHIRLEY:LCS-03,{dv_land_coversdv_vegatation_covers},2.0,29.4259,-98.5456,28.3
214634,Faculty of Science and Techology.  Rambhai Barni Rajabhat University,โรงเรียนบางกะจะ,{dv_land_coversdv_vegatation_covers},2.0,12.58,102.5,24.0
20181,Fair Haven K-8 (TAG PROGRAM),Land Cover # 1:LCS-01,{dv_land_coversdv_vegatation_covers},2.0,41.33337,-72.90016,15.2
25568,Fairview Elementary School,School Location:BIO-01,{dv_land_coversdv_vegatation_covers},6.0,35.3915,-83.1969,830.0
17873,Fairview Middle School (USALOKZL),practice site:LCS-01,{dv_land_coversdv_vegatation_covers},2.0,34.74201,-87.64755,191.5
23649,Fairview Outdoor Education Center,School Location:BIO-01,{dv_land_coversdv_vegatation_covers},2.0,39.6561,-77.9319,125.0
7224,Fatima Alzahraa-Military Culture,MARJ ALHAMAM / AMMAN:BIO-01,{dv_land_coversdv_vegatation_covers},2.0,31.9008,35.8617,824.0
6404,Ferences Gimnázium,Bio:BIO-01,{dv_land_coversdv_vegatation_covers},7.0,47.721,19.0,462.0
6405,Ferences Gimnázium,Land Cover/Biology Site 04:BIO-04,{dv_land_coversdv_vegatation_covers},2.0,47.9611,17.3381,91.3
6406,Ferences Gimnázium,Rozsahegy:LCS-01,{dv_land_coversdv_vegatation_covers},14.0,47.721,19.0,374.0
22448,Ferson Creek Elementary School,HEMMER'S WOODS:BIO-02,{dv_land_coversdv_vegatation_covers},3.0,41.9347,-88.3593,234.0
22447,Ferson Creek Elementary School,School Location:BIO-01,{dv_land_coversdv_vegatation_covers},4.0,41.947,-88.3871,223.0
21220,Findley Oaks Elementary School,School Location:BIO-01,{dv_land_coversdv_vegatation_covers},2.0,34.0028,-84.1447,299.0
22302,Firth Middle School,School Location:BIO-01,{dv_land_coversdv_vegatation_covers},2.0,43.3053,-112.1822,1633.0
22420,Fisher Grade School,School Location:BIO-01,{dv_land_coversdv_vegatation_covers},2.0,40.2946,-88.3723,232.0
24946,Five Hawks Elementary School,School Location:BIO-01,{dv_land_coversdv_vegatation_covers},2.0,44.7322,-93.4367,314.0
7072,Fjolbrautaskoli Sudurnesja,Holt vid F.S. -> A:BIO-04,{dv_land_coversdv_vegatation_covers},2.0,63.9977,-22.5645,15.0
7073,Fjolbrautaskoli Sudurnesja,Holt vid F.S. -> C:BIO-05,{dv_land_coversdv_vegatation_covers},2.0,63.9982,-22.5602,15.0
7070,Fjolbrautaskoli Sudurnesja,Holt vid F.S.->S:BIO-02,{dv_land_coversdv_vegatation_covers},3.0,63.9967,-22.9343,15.0
7069,Fjolbrautaskoli Sudurnesja,School Location:BIO-01,{dv_land_coversdv_vegatation_covers},2.0,63.998,-22.56,12.0
17342,Florence Middle School,Practice Land Cover 1:LCS-02,{dv_land_coversdv_vegatation_covers},2.0,34.78395,-87.65599,259.0
25811,Florence Rideout Elementary School,School Location:BIO-01,{dv_land_coversdv_vegatation_covers},2.0,42.8433,-71.7356,117.0
21113,Florida State University Department of Meteorology,FSU-Piney Woods:BIO-01,{dv_land_coversdv_vegatation_covers},2.0,30.4474,-84.288,75.8
23308,Forestdale School - Sandwich Public Schools,Forestdale School Bio Site:BIO-03,{dv_land_coversdv_vegatation_covers},2.0,41.698,-70.507,43.0
23307,Forestdale School - Sandwich Public Schools,School Location:BIO-01,{dv_land_coversdv_vegatation_covers},2.0,41.6884,-70.5019,12.0
24704,Forsythe Middle School,School Location:BIO-01,{dv_land_coversdv_vegatation_covers},2.0,42.2969,-83.766,247.0
208793,France Citizen Science,32TKR681636,{dv_land_coversdv_vegatation_covers},2.0,45.68712,6.02184,1356.5
26099,Franklin Elementary School,School Location:BIO-01,{dv_land_coversdv_vegatation_covers},3.0,40.8938,-74.0957,25.0
30513,Frederick Douglass Elementary School,School Location:BIO-01,{dv_land_coversdv_vegatation_covers},3.0,39.1856,-78.1636,181.0
25728,Fremont Middle School,School Location:BIO-01,{dv_land_coversdv_vegatation_covers},6.0,41.4333,-96.4978,353.0
19040,Ft. Defiance Elementary School,School Location:BIO-01,{dv_land_coversdv_vegatation_covers},2.0,35.7444,-109.0765,2103.0
7475,Fukui University Junior High School,Seibutu:BIO-02,{dv_land_coversdv_vegatation_covers},2.0,36.0833,136.2,10.0
24838,Galesburg - Augusta Intermediate School,WATER TOWER PARK:BIO-02,{dv_land_coversdv_vegatation_covers},6.0,42.3388,-85.355,282.0
24956,Galtier Math Science And Technology Magnet School,School Location:BIO-01,{dv_land_coversdv_vegatation_covers},3.0,44.9576,-93.1558,251.0
26802,Garden City Middle School,School Location:BIO-01,{dv_land_coversdv_vegatation_covers},2.0,40.724,-73.6442,2.0
155204,Germany Citizen Science,32ULA681934,{dv_land_coversdv_vegatation_covers},2.0,50.47773,7.141,472.3
201962,Germany Citizen Science,32UMA760536,{dv_land_coversdv_vegatation_covers},2.0,50.13415,8.66418,121.6
210303,Germany Citizen Science,32UMB161959,{dv_land_coversdv_vegatation_covers},2.0,51.40811,7.79369,168.9
212179,Germany Citizen Science,33UUT475603,{dv_land_coversdv_vegatation_covers},2.0,51.97243,12.77984,112.6
156018,Germany Citizen Science,33UUU921174,{dv_land_coversdv_vegatation_covers},2.0,52.49605,13.41059,34.9
190305,Ghana GLOBE v-School,31NBH181302,{dv_land_coversdv_vegatation_covers},3.0,6.59953,0.45068,163.3
8343,Gimnasia Gorkiy,School Location:BIO-01,{dv_land_coversdv_vegatation_covers},2.0,53.2083,63.6417,160.0
6025,Gimnazija Cakovec,globetka1dajt:LCS-04,{dv_land_coversdv_vegatation_covers},2.0,46.38735,16.4045,102.3
6024,Gimnazija Cakovec,globetka misa1:LCS-03,{dv_land_coversdv_vegatation_covers},2.0,46.39049,16.40191,102.3
6097,Gimnazija Dubrovnik,Gorica sv. Vlaha:BIO-01,{dv_land_coversdv_vegatation_covers},12.0,42.2326,18.0081,40.2
5591,Gimnazija Karlovac,Ilovac-suma:LCS-02,{dv_land_coversdv_vegatation_covers},5.0,45.5233,15.5507,120.0
5590,Gimnazija Karlovac,Meku?janski lug:LCS-01,{dv_land_coversdv_vegatation_covers},11.0,45.4665,15.5743,70.7
32380,Gimnazija Karlovac,Travnjak:LCS-06,{dv_land_coversdv_vegatation_covers},8.0,45.48185,15.55894,63.7
100123,Gimnazija Karlovac,Žabnik,{dv_land_coversdv_vegatation_covers},3.0,46.53139,16.37959,173.0
35620,Gimnazija Matija Mesic,[BIOMETRIJA] [ŠKOLA] POKROV,{dv_land_coversdv_vegatation_covers},6.0,45.15721,18.01165,92.0
32359,Gimnazija Matija Mesic,Klasije:LCS-11,{dv_land_coversdv_vegatation_covers},5.0,45.15705,18.01115,92.0
5559,Gimnazija Matija Mesic,Ljeskove vode:LCS-01,{dv_land_coversdv_vegatation_covers},6.0,45.21666,18.08333,215.0
35666,Gimnazija Petra Preradovica,Meteorološka kućica Gimnazije,{dv_land_coversdv_vegatation_covers},7.0,45.83139,17.38466,122.0
144707,Gimnazija Petra Preradovica,Postaja Mali park,{dv_land_coversdv_vegatation_covers},19.0,45.8301,17.3912,122.0
11585,Gimnazjum Cz.Milosza in Łęczyca,Gimnazjum Topola Krolewska:BIO-03,{dv_land_coversdv_vegatation_covers},9.0,52.0634,19.1251,67.2
11584,Gimnazjum Cz.Milosza in Łęczyca,Topola Krolewska:BIO-01,{dv_land_coversdv_vegatation_covers},10.0,52.1094,19.2642,67.5
10486,Gimnazjum No 17 in Białystok,Forest Bialystok:LCS-03,{dv_land_coversdv_vegatation_covers},3.0,53.1155,23.0222,111.7
11522,Gimnazjum St. Staszica in Panki,forest:LCS-04,{dv_land_coversdv_vegatation_covers},2.0,50.8924,18.7591,224.6
25350,Glade Creek Elementary,Glade Valley Woods:LCS-01,{dv_land_coversdv_vegatation_covers},2.0,36.5149,-80.9434,908.8
653,Glen Waverley Secondary College,School Location:BIO-01,{dv_land_coversdv_vegatation_covers},2.0,-37.85,145.5,123.0
23458,Glenwood Middle School,School Location:BIO-01,{dv_land_coversdv_vegatation_covers},3.0,39.2917,-77.0206,169.0
20088,Glenwood Springs High School,School Location:BIO-01,{dv_land_coversdv_vegatation_covers},2.0,39.5506,-107.3242,2083.0
158522,GLOBE Program Office,37MBU599629,{dv_land_coversdv_vegatation_covers},3.0,-1.2395,36.84229,1663.9
2379,Goethe Schule,HELGEBACH97:BIO-03,{dv_land_coversdv_vegatation_covers},5.0,50.5502,8.5077,180.0
19669,Gold Ridge Elementary School,School Location:BIO-01,{dv_land_coversdv_vegatation_covers},5.0,38.3674,-122.6807,43.0
24170,Goodrich Middle School,School Location:BIO-01,{dv_land_coversdv_vegatation_covers},2.0,42.9169,-83.5064,299.0
183439,GOVERNMENT SECONDARY SCHOOL KABWIR,32PNR633425,{dv_land_coversdv_vegatation_covers},7.0,9.4305,9.57659,744.8
21215,G.P. Babb Middle School,Babb Athletic Field:LCS-01,{dv_land_coversdv_vegatation_covers},2.0,33.6039,-84.3515,1029.7
144544,GPM Satellite Mission,18SUH672866,{dv_land_coversdv_vegatation_covers},12.0,38.71808,-76.52755,2.4
193178,GPM Satellite Mission,18SUJ102471,{dv_land_coversdv_vegatation_covers},3.0,39.25247,-77.19963,182.3
158602,GPM Satellite Mission,18SUJ103471,{dv_land_coversdv_vegatation_covers},3.0,39.25249,-77.19847,183.7
194112,GPM Satellite Mission,18SUJ104466,{dv_land_coversdv_vegatation_covers},3.0,39.24801,-77.19717,179.4
46273,GPM Satellite Mission,18SUJ104472,{dv_land_coversdv_vegatation_covers},10.0,39.25342,-77.19734,181.1
165729,GPM Satellite Mission,18SUJ105471,{dv_land_coversdv_vegatation_covers},3.0,39.25254,-77.19615,179.9
35785,GPM Satellite Mission,18SUJ105472,{dv_land_coversdv_vegatation_covers},19.0,39.25344,-77.19618,178.8
31340,Grace Christian Day School,School Location:BIO-01,{dv_land_coversdv_vegatation_covers},2.0,44.2705,-88.4242,249.0
23266,Grafton High School,Merriam Road  Conservation Land -top of hill:LCS-01,{dv_land_coversdv_vegatation_covers},2.0,42.2,-71.65,181.0
23265,Grafton High School,School Location:BIO-01,{dv_land_coversdv_vegatation_covers},3.0,42.2129,-71.6942,30.0
18941,Grand Canyon Middle School,Pinon-Juniper #1:LCS-01,{dv_land_coversdv_vegatation_covers},2.0,36.04386,-112.13989,2128.4
30484,Grand County High School,RIPARIAN ZONE OF MILL CREEK HYDROLOGY SITE:LCS-01,{dv_land_coversdv_vegatation_covers},2.0,38.5722,-109.5453,1234.0
30483,Grand County High School,School Location:BIO-01,{dv_land_coversdv_vegatation_covers},2.0,38.5672,-109.5462,1090.0
215205,Greece GLOBE v-School,34TFK221361,{dv_land_coversdv_vegatation_covers},2.0,40.06632,22.43178,2086.4
216587,Greece GLOBE v-School,Research Area: LIT-216587S4,{dv_land_coversdv_vegatation_covers},8.0,40.09729,22.49382,440.8
216669,Greece GLOBE v-School,Research Area: LIT-216669S5,{dv_land_coversdv_vegatation_covers},7.0,40.06632,22.43178,2086.4
19712,Green Valley Elementary,GV Hill:LCS-01,{dv_land_coversdv_vegatation_covers},2.0,37.8342,-121.9755,682.0
31121,Guilford Central School,Landcover/Biology:LCS-01,{dv_land_coversdv_vegatation_covers},2.0,42.8013,-72.6207,183.4
23687,Gunston Day School,School Location:BIO-01,{dv_land_coversdv_vegatation_covers},2.0,39.0417,-76.0667,11.0
23657,Gwynn Park Middle School,School Location:BIO-01,{dv_land_coversdv_vegatation_covers},2.0,38.7063,-76.8677,152.0
1242,Gymnasium Baeumlihof,Eglisee IWB:LCS-02,{dv_land_coversdv_vegatation_covers},6.0,47.5678,7.6362,260.0
2667,Gymnasium Meckelfeld,School Location:BIO-01,{dv_land_coversdv_vegatation_covers},2.0,53.6,10.1667,33.0
4962,Gymnasium of Gavros,Rescentol:LCS-01,{dv_land_coversdv_vegatation_covers},2.0,40.6248,21.201,858.0
4961,Gymnasium of Gavros,School Location:BIO-01,{dv_land_coversdv_vegatation_covers},2.0,40.6248,21.201,858.0
1673,Gymnasium Yeroskipou,MESOGI:LCS-01,{dv_land_coversdv_vegatation_covers},2.0,34.492,32.274,364.0
2040,Gymnazium Ceska Trebova,green:LCS-02,{dv_land_coversdv_vegatation_covers},2.0,49.9167,16.4833,505.0
2037,Gymnazium Ceska Trebova,grun:BIO-05,{dv_land_coversdv_vegatation_covers},3.0,49.9195,16.4888,505.0
2036,Gymnazium Ceska Trebova,redcirclecross:BIO-04,{dv_land_coversdv_vegatation_covers},3.0,49.9213,16.4895,505.0
2042,Gymnazium Ceska Trebova,redcirclecross:LCS-04,{dv_land_coversdv_vegatation_covers},2.0,49.9213,16.4895,505.0
2038,Gymnazium Ceska Trebova,red square triangle:BIO-06,{dv_land_coversdv_vegatation_covers},2.0,49.5518,16.2934,505.0
2041,Gymnazium Ceska Trebova,red square triangle:LCS-03,{dv_land_coversdv_vegatation_covers},2.0,49.9197,16.489,505.0
2035,Gymnazium Ceska Trebova,white circle cross:BIO-03,{dv_land_coversdv_vegatation_covers},2.0,49.9197,16.489,505.0
2043,Gymnazium Ceska Trebova,white circle cross:LCS-05,{dv_land_coversdv_vegatation_covers},2.0,49.5517,16.2933,505.0
2034,Gymnazium Ceska Trebova,white square triangle:BIO-02,{dv_land_coversdv_vegatation_covers},3.0,49.9217,16.4897,505.0
2039,Gymnazium Ceska Trebova,white square triangle:LCS-01,{dv_land_coversdv_vegatation_covers},2.0,49.9167,16.4833,505.0
1729,Gymnazium Moravska Trebova,Hradisko les:LCS-01,{dv_land_coversdv_vegatation_covers},3.0,49.77251,16.67637,392.5
1915,Gymnazium Voderadska,Wood:BIO-02,{dv_land_coversdv_vegatation_covers},5.0,50.0265,14.4838,394.0
9873,Hafrsfjord Skole,Madlatua:BIO-02,{dv_land_coversdv_vegatation_covers},6.0,58.935,5.6447,35.0
4537,Hagelstamska hogstadiet,School Location:BIO-01,{dv_land_coversdv_vegatation_covers},2.0,60.2,24.7278,27.0
21245,Hahira Middle School,BIO/GEO SUBSITE:BIO-02,{dv_land_coversdv_vegatation_covers},2.0,30.9905,-83.3817,52.0
20223,HALS Academy,Pennwood state park Bloomfield Ct(2009):LCS-07,{dv_land_coversdv_vegatation_covers},2.0,41.85632,-72.77593,182.6
20219,HALS Academy,Pennwood State Park Bloomfield CT:LCS-03,{dv_land_coversdv_vegatation_covers},2.0,41.684,-72.46692,197.3
20222,HALS Academy,sleeping giant Hamden:LCS-06,{dv_land_coversdv_vegatation_covers},2.0,41.25901,-72.53398,766.3
20220,HALS Academy,TALCOTT MOUNTAIN STATE PARK (2):LCS-04,{dv_land_coversdv_vegatation_covers},2.0,41.50061,-72.47835,276.7
28330,Hamersville Elementary School,School Location:BIO-01,{dv_land_coversdv_vegatation_covers},2.0,38.9178,-83.9833,268.0
4525,Hango Hogstadium,Biometri and species 7b:BIO-02,{dv_land_coversdv_vegatation_covers},2.0,59.824,22.9747,2.0
16707,Hankins Middle School,Baker H.S.:LCS-01,{dv_land_coversdv_vegatation_covers},2.0,30.67,-88.25,96.8
8305,Hansung-Science High School,School Location:BIO-01,{dv_land_coversdv_vegatation_covers},11.0,37.33,126.58,95.0
29802,Happy Valley High School,School Location:BIO-01,{dv_land_coversdv_vegatation_covers},2.0,36.3486,-82.2108,804.0
19616,Harbor Math/Science Gifted Magnet,School Location:BIO-01,{dv_land_coversdv_vegatation_covers},2.0,33.7358,-118.2914,22.0
163701,Harford County Public Schools (GLIDFUA5),18SUJ603572,{dv_land_coversdv_vegatation_covers},2.0,39.35296,-76.62136,107.8
214291,Haripur Primary School,Haripur pry school,{dv_land_coversdv_vegatation_covers},4.0,0.0,0.0,-3492.0
19560,Harvard - Westlake Middle School,School Location:BIO-01,{dv_land_coversdv_vegatation_covers},2.0,34.0894,-118.4349,33.0
24742,Haslett High School,School Location:BIO-01,{dv_land_coversdv_vegatation_covers},3.0,42.7418,-84.4038,278.0
22697,Haverhill Elementary School,School Location:BIO-01,{dv_land_coversdv_vegatation_covers},2.0,41.0403,-85.2689,238.0
26485,Haviland Middle School,School Location:BIO-01,{dv_land_coversdv_vegatation_covers},2.0,40.7458,-73.6878,3.0
48254,Hay alturath basic school,alqorm garden,{dv_land_coversdv_vegatation_covers},5.0,23.61581,58.48751,7.0
22762,Hays High School,Biology Study Site - HHS Outdoor Classroom:LCS-01,{dv_land_coversdv_vegatation_covers},3.0,38.8653,-99.2945,579.0
22761,Hays High School,School Location:BIO-01,{dv_land_coversdv_vegatation_covers},2.0,38.8653,-99.2945,579.0
148073,Helen Parkhurst,31UFU518053,{dv_land_coversdv_vegatation_covers},2.0,52.3769,5.23012,-2.0
149197,Helen Parkhurst,31UFU521050,{dv_land_coversdv_vegatation_covers},7.0,52.37412,5.23439,-2.3
25761,Henniker Community School,NEC Biology Site:BIO-02,{dv_land_coversdv_vegatation_covers},2.0,43.1742,-71.8278,170.0
31445,Heritage Christian School (USWIXWPW),Greenfield Park:LCS-02,{dv_land_coversdv_vegatation_covers},2.0,43.0036,-88.0378,271.0
26042,Heritage Middle School,School Location:BIO-01,{dv_land_coversdv_vegatation_covers},2.0,40.7958,-74.3153,28.0
2492,Hermann-Tast-Schule,...............MAUSEBERGE HUSUM 1/:LCS-01,{dv_land_coversdv_vegatation_covers},16.0,55.0,10.0,6.0
2491,Hermann-Tast-Schule,School Location:BIO-01,{dv_land_coversdv_vegatation_covers},2.0,55.0,10.0,6.0
24960,Hermantown High School,School Location:BIO-01,{dv_land_coversdv_vegatation_covers},4.0,46.8241,-92.2428,195.0
31262,Hidden Creek Elementary School,School Location:BIO-01,{dv_land_coversdv_vegatation_covers},2.0,47.6347,-122.5847,59.0
21025,Hidden Oak Elementary School,School Location:BIO-01,{dv_land_coversdv_vegatation_covers},2.0,29.6738,-82.4402,21.0
13173,Hidinge skola,Salvenskogen:LCS-01,{dv_land_coversdv_vegatation_covers},4.0,59.1389,14.5364,43.2
20021,Highland Middle School,BIOLOGY/GEOLOGY SITE:BIO-01,{dv_land_coversdv_vegatation_covers},2.0,40.5815,-104.738,1658.0
21256,High Meadows School And Camp,Lower meadow/blackberry heaven:LCS-01,{dv_land_coversdv_vegatation_covers},2.0,34.0374,-84.356,293.0
25736,Hildreth High School,School Location:BIO-01,{dv_land_coversdv_vegatation_covers},2.0,40.3121,-99.0614,648.0
22520,Hilltop Elementary School,School Location:BIO-01,{dv_land_coversdv_vegatation_covers},2.0,42.3502,-88.2486,228.0
16556,Hokes Bluff Middle School,Connie Clark:LCS-01,{dv_land_coversdv_vegatation_covers},2.0,33.69452,-85.82293,244.9
4637,Hollolan Ylaaste,School Location:BIO-01,{dv_land_coversdv_vegatation_covers},2.0,60.8897,25.52,155.0
20313,Holmes Elementary School (USCTI496),School Location:BIO-01,{dv_land_coversdv_vegatation_covers},4.0,41.0785,-73.5123,18.0
19989,Holmes Middle School,Sondermann Park/Beidleman Envir. Ctr.:BIO-02,{dv_land_coversdv_vegatation_covers},16.0,38.8592,-104.8388,1932.0
28810,Holy Name High School,School Location:BIO-01,{dv_land_coversdv_vegatation_covers},3.0,40.3405,-75.9472,56.0
21895,Hoover Elementary School (USIAGE97),School Location:BIO-01,{dv_land_coversdv_vegatation_covers},2.0,41.5265,-90.5522,1455.0
31392,Horning Middle School,School Location:BIO-01,{dv_land_coversdv_vegatation_covers},2.0,43.0117,-88.2313,266.0
9815,Hornnes vidareg?ande skule (16-19),School Location:BIO-01,{dv_land_coversdv_vegatation_covers},3.0,58.5682,7.7697,180.0
159970,Howell Nature Center,17TKH576121,{dv_land_coversdv_vegatation_covers},3.0,42.52329,-83.9511,293.1
26032,Hunterdon Central Regional High School,School Location:BIO-01,{dv_land_coversdv_vegatation_covers},2.0,40.516,-74.8486,82.0
26306,Hunter-Tannersville Central School,NORTH AND SOUTH LAKE 7:LCS-07,{dv_land_coversdv_vegatation_covers},2.0,42.1943,-74.0373,600.0
26304,Hunter-Tannersville Central School,NORTH AND SOUTH LAKE GROUP 5:LCS-05,{dv_land_coversdv_vegatation_covers},2.0,42.0412,-74.0412,600.0
26302,Hunter-Tannersville Central School,North/South Lake-3:LCS-03,{dv_land_coversdv_vegatation_covers},2.0,42.1975,-74.0402,600.0
26305,Hunter-Tannersville Central School,North/South Lake #6:LCS-06,{dv_land_coversdv_vegatation_covers},2.0,42.1948,-74.0407,600.0
26301,Hunter-Tannersville Central School,North/South Lake:LCS-01,{dv_land_coversdv_vegatation_covers},2.0,42.1833,-74.8667,280.0
26300,Hunter-Tannersville Central School,N-S LAKE-1:BIO-09,{dv_land_coversdv_vegatation_covers},2.0,42.1958,-74.04,280.0
26295,Hunter-Tannersville Central School,N-S LAKE -2:BIO-04,{dv_land_coversdv_vegatation_covers},2.0,42.195,-72.0365,280.0
26294,Hunter-Tannersville Central School,N-S LAKE-3:BIO-02,{dv_land_coversdv_vegatation_covers},2.0,42.1975,-74.0402,280.0
26297,Hunter-Tannersville Central School,N-S LAKE -4:BIO-06,{dv_land_coversdv_vegatation_covers},2.0,42.1922,-74.0413,280.0
26303,Hunter-Tannersville Central School,N.S. Lake  #4:LCS-04,{dv_land_coversdv_vegatation_covers},2.0,42.1922,-74.0413,280.0
26299,Hunter-Tannersville Central School,N-S-LAKE-5:BIO-08,{dv_land_coversdv_vegatation_covers},2.0,42.0412,-74.0412,280.0
26296,Hunter-Tannersville Central School,N-S LAKE -6:BIO-05,{dv_land_coversdv_vegatation_covers},2.0,42.1948,-74.0407,1800.0
26298,Hunter-Tannersville Central School,N-S LAKE-7:BIO-07,{dv_land_coversdv_vegatation_covers},2.0,42.1943,-74.0373,280.0
28311,Huntington Elementary School,School Location:BIO-01,{dv_land_coversdv_vegatation_covers},2.0,41.2245,-81.8162,329.0
48259,Ibri basic School,Alqurm Park,{dv_land_coversdv_vegatation_covers},2.0,23.4,58.3,10.0
201609,ICESat-2,18SVH506529,{dv_land_coversdv_vegatation_covers},2.0,38.42299,-75.56592,11.5
103459,ICESat-2,BGSU Main Campus Quad,{dv_land_coversdv_vegatation_covers},2.0,41.37614,-83.64105,213.0
104495,ICESat-2,Bouwman Test Site - Grosse Ile Michigan,{dv_land_coversdv_vegatation_covers},8.0,42.15126,-83.14917,179.8
126945,ICESat-2,CHS - Hill,{dv_land_coversdv_vegatation_covers},2.0,42.0857,-83.2156,176.2
101808,ICESat-2,Furnace Town - MD STEMFest November 6 2017,{dv_land_coversdv_vegatation_covers},4.0,38.2042,-75.4704,10.9
